id,name,lat,lon,price,cuisine,opentime,endtime,recommendedfood
0,珍宝海鲜JUMBO Seafood(北京SKP店),39.9104413,116.4786338,401.0,东南亚菜,11:30,21:00,"获奖新加坡辣椒螃蟹,新加坡娘惹炸彩虹鲷,黑胡椒螃蟹,梨香带子,麦片虾,蟹肉扒翡翠豆腐"
1,提督·TIDU(北京坊店),39.8975569,116.3949362,337.0,北京菜,11:00,21:00, 
2,沃夫冈牛排馆Wolfgang’s Steakhouse(三里屯店),39.9321798,116.4584324,1100.0,西餐,11:30,22:00,"肉眼牛排,西冷牛排,超厚焦脆培根,珍宝蟹饼"
3,北京璞瑄酒店·左岸,39.9237932,116.4101746,733.0,西餐,06:30,22:00, 
4,南门涮肉(天坛店),39.8737951,116.4135705,101.0,清真菜,06:30,22:30,"脆香肥牛,宏源手抓肉,鲜羊肉,炸烧饼,糖蒜,毛肚,鲅鱼丸,鲜百叶,羊肉,虾滑"
5,美·大董海参店(南新仓店),39.9323894,116.4310483,980.0,北京菜,11:00,22:00,"葵香鸡,黑牛肝菌孢子甘蓝,糖醋九肚鱼,鱼子酱脆皮鸭"
6,四季民福烤鸭店(故宫店),39.9145249,116.4028728,180.0,北京菜,10:30,21:30, 
7,北京中国大饭店·夏宫,39.9104852,116.458885,454.0,粤菜,11:30,21:00,"扬州大煮干丝,响油鳝糊,XO酱虾皮炒萝卜糕,烧鹅,蟹粉小笼包,焗餐包,夏宫虾饺皇"
8,北京宝格丽酒店·IL RISTORANTE NIKO ROMITO,39.9477281,116.4577405,1076.0,西餐,11:30,22:00,"意式细面配加拿大龙虾西班牙红虾,烤乳猪,炙烤澳大利亚M7西冷和牛,传统小牛肉及番茄自制意式千层面,腌制日本加吉鱼配鱼子酱,‍提拉米苏"
9,北京王府半岛酒店·Jing餐厅,39.9149462,116.4164071,1251.0,西餐,12:00,14:00,"扇贝,多佛龙利鱼,鳕鱼,热带风情,熏羔羊排"
10,北京璞瑄酒店·富春居,39.9235286,116.41,482.0,粤菜,11:30,21:30, 
11,北京瑞吉酒店·天宝阁中餐厅,39.911025,116.440194,352.0,粤菜,11:30,22:00,"汤皇大虾,加拿大野米煮辽参,天宝阁秘制佛跳墙,黑蒜煎和牛,顺德拆鱼羹,芝麻脆皮炸子鸡,鱼子酱焗深海鳕鱼"
12,新荣记(新源南路店),39.9477827,116.4567693,1017.0,江浙菜,11:30,21:00,"黄金脆带鱼,沙蒜烧豆面,和牛挞,脆皮妙龄鸽,农家盐卤豆腐煲,蜜汁红薯"
13,北京四季酒店·MIO,39.9501062,116.4666362,1042.0,西餐,11:30,22:00,"和牛排,轻煎羊外脊,手工意面,慢煮块根芹,香煎红鲷鱼,提拉米苏"
14,北京四季酒店·采逸轩,39.9502335,116.4665739,848.0,粤菜,11:30,22:00,"黑蒜大千爆虾球,脆皮炸子鸡,五粮液炒豆苗,海鲜炒饭,笋尖鲜虾饺,黑松露鲍鱼红烧肉,蟹酿橙,草莓柚子西米露,凸黄油"
15,蘭頌餐厅,39.9750377,116.47602,1706.0,西餐,11:30,22:00,"干式熟成澳洲M9和牛菲力,法国银鳕鱼配宫廷诺曼底酱汁与香橼,妙龄乳鸽配刺身级鹅肝与手打鱼泥,大连皱纹盘鲍配养马岛扇贝与墨鱼,有机酵母冰霜与泡沫配长白山黑加仑,法式菌菇清汤配绣球菌时蔬饺子 ,法式菌菇泥配兰皇温泉蛋黄与芝士泡沫,西班牙红魔虾配十五年达氏鳇鲟鱼子酱与红石榴"
16,护国寺小吃(护国寺总店),39.9351306,116.374839,32.0,小吃,06:00,21:00,"豆腐脑,糖耳朵,糊塌子,豆汁,肉饼,松肉,炒疙瘩,精品驴打滚,焦圈,羊杂汤"
17,晟永興烤鸭店(三里屯店),39.9407392,116.450036,458.0,北京菜,11:00,21:00,"鱼子酱烤鸭1只,香醇鹅肝,松露大虾球,芥末鸭掌,金甲深海黄鱼,河园烧羊腩"
18,北京全聚德(和平门店),39.8993388,116.3850209,197.0,北京菜,11:00,20:30, 
19,门框胡同百年卤煮(新街口店),39.9404877,116.3688519,53.0,小吃,09:30,02:00,"卤煮火烧,老北京炸灌肠,老北京羊肉串,老北京爆肚,老北京炸咯吱,老北京炸酱面"
20,北京全聚德(前门店),39.8966303,116.3983652,184.0,北京菜,11:00,21:00,"北京烤鸭,芥末鸭掌,盐水鸭肝,火燎鸭心"
21,北京三里屯通盈中心洲际酒店·恰牛扒房Char bar&grill,39.9328203,116.4549799,719.0,西餐,11:30,22:00,"战斧牛排,罗宾岛西冷牛排,加拿大扇贝和鱼子酱,凯撒沙拉配卡真大虾,意式柠檬草龙虾浓汤,奶油蘑菇汤"
22,北京康莱德酒店·陆羽餐厅,39.9272075,116.460645,373.0,粤菜,11:30,22:00, 
23,北京亲然美宿·大山咖啡coffee,40.4065056,116.5570805,80.0,咖啡店,09:00,19:00,"拿破仑,限量版提拉米苏,生椰拿铁,栗子蛋糕,dirty,焦糖苹果肉桂"
24,北京王府井文华东方酒店·紫膳餐厅,39.9126748,116.4091076,568.0,粤菜,06:30,22:00, 
25,宫宴·须尽欢,39.8957404,116.3983332,552.0,北京菜,17:30,21:00,"葱油汁蒸东海黄鱼,宫廷冷盘,黄焖汤煨四宝,宫廷小点心,宫里的桂花酸奶,叉烧银鳕鱼,葱烧烤海参烩爪尖,脆皮黑猪肉,花雕鸡油菜脯蒸黄鱼,鸽子豆腐汤"
26,北京丽晶酒店·Daccapo迪卡博,39.916089,116.4188407,338.0,西餐,11:30,22:00,"惠灵顿牛排,香煎扇贝配胡萝卜泥及鹌鹑蛋,红菜头山羊芝士沙拉,波士顿龙虾配蒜香面包"
27,京兆尹(雍和宫店),39.9483257,116.4161334,1560.0,素食,11:00,21:00,"山楂蜜饮,栗子奶茶,玫瑰冰茶,甜点拼盘,中式下午茶拼盘,坚果拼盘,九层塔茄子,圣女果,卡布奇诺,西式下午茶拼盘"
28,北京盘古七星酒店·文奇中餐厅,39.993778,116.386543,1617.0,粤菜,11:30,22:00,"鸽吞燕,石锅佛跳墙,萝卜糕炒虾球,秘制烤羊排"
29,山河万朵中国素食VEGE WONDER(王府中环店),39.912838,116.4083698,946.0,素食,11:00,22:00,"青茴,颂春,牧场,绿洲,山林,海岸,河川,碰撞,紫菜,百合"
30,河沿肉饼Beijing Pie(锡拉胡同店),39.9162222,116.4085607,64.0,北京菜,10:00,21:00,"宫保鸡腿丁,牛肉饼,北京烤鸭肉饼,猪肉饼,传统京味疙瘩汤,麻酱糖饼"
31,北京国贸大酒店·国贸79,39.9123846,116.4587466,999.0,西餐,06:30,22:00, 
32,有术cafe,39.9252204,116.3600509,46.0,咖啡店,09:00,18:00, 
33,Refer,39.938681,116.4542376,3178.0,西餐,18:00,22:00,"鸭掌脆片,鱼子酱塔,鸭肝慕斯,青苹果年糕,馒头海胆寿司,扇贝黄瓜"
34,京季荣派官府菜,39.9105428,116.4807825,1520.0,北京菜,11:30,21:00,"鸡油花雕蒸大花蟹陈村粉,脆皮牛腩,黄焖佛跳墙,潮州卤鹅掌,珊瑚芙蓉大虾球,葛仙米炖天山雪莲"
35,樂·墨瑞,39.946961,116.4648313,1665.0,西餐,11:30,22:00,"香草烤鸡,香煎鸭胸肉,勃艮第红酒炖牛肉,秃黄油烩饭,伊比利亚火腿水波蛋南瓜汤,法式传统千层酥"
36,北京香格里拉饭店·咖啡CHA自助餐厅,39.9441091,116.3085601,507.0,自助餐,11:30,21:00, 
37,北京香格里拉饭店·AZUR聚,39.9441659,116.3082202,978.0,西餐,11:30,22:00, 
38,北京华尔道夫酒店·鸢尾宫1893(金鱼胡同店),39.9158604,116.4138641,846.0,西餐,06:30,10:30,"夏多布里昂牛排,法芙娜焦糖巧克力香蕉,扇贝,鸭肝批,鲍鱼,鱼子酱,龙虾,犬牙鱼,黑松露蘑菇烩面"
39,满福楼(蓝岛店),39.9224463,116.4493604,136.0,火锅,11:00,22:00,"纯鲜墨鱼丸,现炒肉末烧饼,手切涮羊肉,碳烤羊肉串,纯手工鲜虾丸,清汤锅底"
40,北京柏悦酒店·北京亮China Grill,39.9074574,116.4590363,879.0,西餐,11:30,22:30,"餐前面包,招牌黑胡椒波士顿龙虾,黄油大明虾和松露野菌汤,海鲜菌菇鸡肉冬瓜盅,土豆泥,北京亮沙拉,三文鱼,刺身拼盘,巧克力纯种和牛柳,西班牙火腿"
41,三清潭烧鹅(太古里店),39.9385646,116.454552,262.0,粤菜,11:30,21:00, 
42,旺顺阁鱼头泡饼(万柳店),39.9733582,116.2950804,145.0,北京菜,10:00,21:00, 
43,旺顺阁鱼头泡饼(通州万达店),39.905202,116.6405471,141.0,北京菜,10:30,21:00, 
44,北京王府井希尔顿酒店·秦唐中餐厅Chynna,39.9144691,116.4133602,259.0,北京菜,11:30,22:00, 
45,川骄海鲜自助(建国门店),39.9048625,116.4345543,299.0,自助餐,11:30,21:30, 
46,聚宝源(牛街总店),39.886754,116.363296,118.0,火锅,10:30,22:30,"大白菜,锅底,高钙羔羊肉,芝麻火烧,金牌羊上脑,菌菇拼盘,羊肋肉,糖卷果,太阳肉,牛眼肉"
47,福楼毕斯罗F Bistronome(国贸商城店),39.9117608,116.460591,408.0,西餐,11:30,22:00,"招牌香橙舒芙蕾,空运生蚝,柠檬迷漫挞"
48,官也街澳门火锅(国贸商城店),39.9114616,116.4607738,832.0,火锅,11:00,23:00,"海鲜拼盘,芝士牛肉丸,响铃,澳门鸡脚猪骨煲,大花虾"
49,北京瑰丽酒店·乡味小厨Country Kitchen,39.9202349,116.4603396,377.0,北京菜,11:30,22:00,"炸酱面,牛肉刀削面,三鲜白菜炉灶肉,炸烹大虾,陕西油泼扯面,鱼香茄子,麻辣烫,干锅土豆片,茄子刀削面,干锅娃娃菜"
50,银座岩,39.9486337,116.4556929,2764.0,日本料理,12:00,22:00, 
51,福楼法餐厅FLO,39.9631189,116.469753,640.0,西餐,11:30,22:00,"法式香煎牛排,勃垦第焗蜗牛,露杰鹅肝配莲雾,油封鸭腿,挪威烟熏三文鱼水晶黄瓜香槟奶油,法式蘑菇汤,塔希提香草焦糖布丁,甜点,鹅肝批,覆盆子慕斯蛋糕"
52,小吊梨汤(新奥店),39.9999464,116.3944566,92.0,北京菜,10:30,21:30,"小吊梨汤,小煎猪肝,小豆凉糕,干酪鱼,梨球果仁虾,梨汤脱骨鸡,招牌牛肉烩饭,豌豆黄,掓麻排骨,招牌黄烩饭"
53,白家大院(苏州街店),39.9797406,116.3048736,599.0,北京菜,10:30,22:30,"鱼翅,驴肉,宫爆虾球,木瓜雪蛤,妃子笑,豌豆黄,白府海参,花瓣,虾球,金牌蒜香骨"
54,北平食府.臻品私宴(王府井店),39.9104672,116.4125911,201.0,北京菜,10:30,21:30,"甄选卡露伽鱼子酱VIP国粹烤鸭,北平酥不腻烤鸭,莲年有鱼,后现代·酱爆肉丁,初榨橄榄油大拌菜"
55,北京诺富特和平宾馆·卡本妮法餐厅,39.9159592,116.4151974,292.0,西餐,11:30,21:30, 
56,尹三豆汁(天坛店),39.8904993,116.4128003,17.0,小吃,05:30,12:30,"豆汁,烧饼,焦圈,面茶,豆面丸子,糖火烧"
57,北京金茂万丽酒店·万丽轩,39.9213606,116.4100272,294.0,粤菜,11:30,22:00,"三文鱼,马卡龙,黑森林蛋糕,树莓巧克力蛋糕,青柠芝士蛋糕,比利时华夫饼,新西兰羊排,家族式烤乳猪,京式班尼地煮蛋,牛肉面"
58,宫门口馒头铺(创始人总店),39.8881178,116.3945529,26.0,小吃,07:00,19:00,"红糖大枣馒头,八宝粘豆包,红小豆的豆包,蜂蜜烤馒头,红糖麻酱花卷,大米发糕"
59,局气·烤鸭·北京菜(西单店),39.9124064,116.3802001,85.0,北京菜,11:00,21:30,"炸灌肠,乾隆白菜,局气酥皮虾,局气豆腐,兔爷土豆泥,杏仁豆腐"
60,刘记炙子烤肉(虎坊桥店),39.888247,116.3853431,114.0,烧烤,11:00,22:30,"烤牛肉,烤牛舌,烤羊肉,烤鲜鱿鱼须,烤鱼豆腐,炸窝头"
61,TRB Hutong (嵩祝寺店),39.9275728,116.4035617,1569.0,西餐,11:30,22:00,"和牛,蛏子王,鳌虾,扇贝,马友鱼,乳鸽,鹅肝 · 梨,蓝龙虾,松露"
62,枫丹露原LA ROSEE·福楼新概念(西单大悦城店),39.9107493,116.3724493,229.0,西餐,11:00,21:00, 
63,北京古城老院精品酒店·古城老院餐厅,39.9314233,116.4138091,725.0,西餐,12:00,20:30,"法国金珍珠蚝,酥脆鹅肝小饺子,巧克力舒芙蕾"
64,CASA TALIA by TIAGO(侨福芳草地店),39.9194715,116.4487192,350.0,西餐,11:30,21:30, 
65,胖妹面庄(香饵胡同店),39.9393284,116.4164133,60.0,小吃,11:00,21:00,"豌杂面,脱骨土鸡爪,麻辣排骨串,大门拌三鲜,强强蜜冬瓜,肥肠面,老麻抄手,凉糕"
66,芙蓉无双荣派湘菜,39.9174174,116.3588079,468.0,湘菜,11:30,21:00,"浏阳豆豉辣椒蒸肉,蓉园臭豆腐,芙蓉火烧饼,火爆腰花,酸萝卜煲猪肚汤,擂椒皮蛋"
67,牛街清真满恒記(平安里西大街店),39.9318572,116.3675495,117.0,清真菜,06:30,22:00,"手工鲜切羊后腿,每日直送鲜脆牛百叶,脆骨羔羊肉卷,精品炭烤小羊肉串,吸汁炸腐竹卷,老回民爆肚"
68,上海滩餐厅(国贸商城店),39.9114106,116.4607377,480.0,本帮菜,11:00,21:30,"和牛麻婆豆腐烩龙虾,鱼子酱野菜脆皮松板肉,上海熏鱼,黑松露布袋,鹅肝春卷脆皮,海鲜浓汤黄坛子,葱烧关东辽参,火瞳炖陈年老鸭,糟骨头黑豚肉碎蒸膏蟹,椒麻煮三件"
69,日本料理·鑫嚞zhe,39.9478988,116.4047683,2019.0,日本料理,12:00,22:00,"酥炸和牛,松茸松叶蟹御碗,金目鲷釜饭,间八釜饭,酥炸甘鲷鱼,酥炸蟹腿胡麻豆腐"
70,北京三里屯CHAO酒店·Living Room,39.932839,116.4515682,450.0,西餐,17:00,22:00,"蒜味地中海红虾,澳洲M5西冷400克,羽衣甘蓝牛油果沙拉,香草烟熏挪威三文鱼配施氏鱼子酱,黑松露鹅肝酱配面包,羊肚菌烩鸡,黑虎虾春卷,蓝莓配杏仁，香草派"
71,潮上潮(正大店),39.9129499,116.4679403,723.0,粤菜,11:30,21:00,"乳鸽,卤水老鹅头,潮式冻鱼饭,鲍鱼汁扣花胶皇, 潮州炸粿肉"
72,紫光园(西直门店),39.9392383,116.3644053,80.0,清真菜,06:00,21:00,"精品红烧牛尾,芫爆散丹,松鼠桂鱼,烤鸭,葱爆羊肉,虾仁炒疙瘩"
73,玲珑,39.9331847,116.460397,1447.0,创意菜,17:30,20:30,"蚝与牛,真鲷鱼生,酸汤鱼,茉莉花黄油,花椒马卡龙,流心蛋黄酥"
74,莫斯科餐厅,39.9403128,116.3430762,285.0,西餐,11:00,21:00, 
75,潮外粤宴(环球贸易中心店),39.967371,116.410662,441.0,粤菜,11:00,22:00, 
76,北京西苑饭店·紫金云顶旋转餐厅,39.9373054,116.3322524,230.0,自助餐,11:30,21:30, 
77,梧桐,39.9735506,116.4806196,218.0,创意菜,11:00,22:00,"芒果粒三文鱼,椰香咖喱面包鸡,酥皮乳鸭,盐水鸭肝酱配烤面包片,梧桐四味烤鸭,梧桐健康鲜桃仁,提拉米苏,红丝绒蛋糕,巧克力蛋糕,鳕鱼南瓜汤"
78,北京东隅酒店·FEAST·颐堤港,39.9690035,116.4920069,248.0,自助餐,06:00,21:00, 
79,北京在之禾度假酒店·孔雀花园餐厅,40.0114162,116.4100302,521.0,西餐,11:00,21:00, 
80,北京首都机场东海康得思酒店·Ming Court 明阁中餐厅,40.0485698,116.6127036,190.0,粤菜,11:00,21:30, 
81,北京日出东方凯宾斯基酒店·啤酒坊,40.3872472,116.6776295,256.0,西餐,11:30,21:30,"啤酒屋特色肉盘,海鲜蔬菜沙拉,海陆拼盘"
82,北京东方君悦大酒店·长安壹号,39.9097491,116.4145306,390.0,北京菜,11:30,21:30,"老式果木烤鸭,芝麻菠菜,宫保鸡丁,富贵鸡,鲍鱼红烧肉,油焖渤海大明虾"
83,牛排家(王府井澳门中心店),39.9147517,116.4136592,298.0,西餐,11:00,22:00, 
84,京城九门轩烤鸭店(前门店),39.8951631,116.3976783,93.0,北京菜,10:30,21:30,"北京烤鸭,老北京炸酱面,宫保鸡丁,贝勒爷烤肉,田园拌菜,鸭架汤"
85,第六季自助餐厅(王府井店),39.9160126,116.4072438,349.0,自助餐,11:00,21:30, 
86,1949-全鸭季(金宝街店),39.9147263,116.4209642,509.0,北京菜,11:00,22:00,"皇帝鸭,宫保虾球521,碧绿炒元贝,七味盐烧豆腐,杨枝甘露,糖醋小排骨,三杯鸡"
87,宴锦堂(隆福寺店),39.9268076,116.4141675,865.0,其他,11:30,22:30, 
88,北京粤财JW万豪酒店·CASALINGO意大利餐厅,39.8955457,116.3755659,199.0,西餐,11:30,22:00, 
89,申德勒加油站西餐厅(日坛路总店),39.9135975,116.4445065,200.0,西餐,11:00,24:00, 
90,美味斋(翔达大厦店),39.8896619,116.3688086,101.0,本帮菜,11:00,21:00,"四喜烤麸,生煎包,响油鳝糊,老油条牛肉,葱油拌面,八宝辣酱"
91,老吉堂上海本帮菜(工体店),39.9267765,116.4487318,228.0,本帮菜,11:00,22:00, 
92,羲和雅苑烤鸭坊(国贸商城店),39.9094562,116.4577647,184.0,北京菜,11:00,21:00,"张氏狮子头,特色宫保鸡丁,宫爆虾球,酸汤肥牛,一品赛蟹黄,盐水鸭肝,干偏口蘑,萝卜干腊肉炒饭,写意烤麸,葱油黄鱼"
93,花开素食(东直门店),39.9407695,116.4260747,203.0,素食,11:00,21:00, 
94,潮舍(环球金融中心店),39.9185149,116.4586289,285.0,粤菜,11:00,21:00, 
95,北京瑰丽酒店·赤火锅RED BOWL,39.9204946,116.4607968,502.0,火锅,17:30,23:00,"澳洲牛上脑,时令蔬菜拼盘,双椒鹿肉,山椒鹿肉"
96,新京熹·北京涮肉(三里屯耀莱店),39.9382473,116.4495746,260.0,火锅,11:00,24:00, 
97,淮扬府(安定门店),39.9538926,116.4085979,261.0,江浙菜,11:00,21:00,"扬州大煮干丝,清炖蟹粉狮子头,响油鳝糊,招牌秘制红烧肉,酥香黄桥烧饼,虾籽阳春面,扬州炒饭,狮子头,阳春面,鱼头"
98,清真·鸦儿李记·涮肉(和平里店),39.9583221,116.418027,113.0,火锅,05:30,22:00,"手切鲜羊肉,鲜百叶,元宝肉,冻切牛上脑,精品肥牛,烤羊肉串"
99,茶汤李京味餐厅(和平里店),39.9618837,116.4203095,77.0,北京菜,10:00,21:00,"羊肉,焦圈,豆汁,菜根香,炒肝,羊肉串,爆肚仁,干炸丸子,炸灌肠,焦溜肉片"
100,Tavola Italian Dining,39.9518843,116.4641943,692.0,西餐,11:30,22:00,"甜品,火爆辣鸡香蒜披萨,意大利水饺"
101,北京郡王府饭店·四面荷风,39.9363614,116.4857888,436.0,咖啡店,11:00,18:00,"黑金小龙虾汉堡,果子糕,富华郡王府芸豆拼"
102,北京北辰五洲皇冠国际酒店·巴西烤肉餐厅,39.9898617,116.4055991,226.0,自助餐,11:30,22:00, 
103,罗兰湖餐厅,39.9738976,116.4794078,224.0,创意菜,11:00,22:00,"重庆森林,海螺细面,烤五花肉,烤青花鱼,小牛仔骨,牛肉章鱼炒米条,海鲜锅"
104,满满海佛跳墙(亚运村店),39.9956359,116.4246472,500.0,海鲜,10:00,21:00,"佛跳墙,鲍鱼烧土豆,红烧河豚"
105,御仙都皇家菜博物馆(金四季购物中心店),39.9453523,116.2706814,591.0,北京菜,10:00,21:00, 
106,紫云轩,40.0453333,116.4920027,580.0,创意菜,11:00,22:00, 
107,北京朗丽兹太和府酒店·宴会厅,40.0939245,116.2852479,295.0,自助餐,17:30,21:00, 
108,北京悉昙酒店·荣府宴,39.9053041,116.0151308,2286.0,江浙菜,08:00,21:00,"雪菜笋丝大汤烧黄鱼,牛肝菌红烧大鲜鲍,熟醉奄仔蟹,烟熏鲳鱼,金砖白玉,边笋丝瓜盐卤豆腐煲"
109,The Cheesecake Factory 芝乐坊餐厅(王府中環店),39.9125095,116.4098902,213.0,西餐,11:00,22:00,"小餐馆炸虾意面,夏威夷盛宴沙拉,红丝绒芝士蛋糕"
110,萃華楼(新世界旗舰店),39.8989206,116.4176068,162.0,鲁菜,10:00,21:30,"酱爆桃仁鸡,特色烤花卷,干炸丸子,烩乌鱼蛋汤,七味盐黄金小豆腐,糟溜鱼片"
111,叶叶菩提(旗舰店),39.8957796,116.4007097,698.0,素食,11:00,21:00, 
112,北平花园(天安门店),39.8982014,116.3957511,268.0,西餐,11:00,23:00, 
113,前门张记涮肉店(前门店),39.8942794,116.3944242,127.0,火锅,10:30,22:00,"鲜羊肉,黄瓜条,手切羊肉,炸松肉,麻豆腐,磨裆肉,冻豆腐,腱子肉,麻酱小料,大白菜"
114,隐世叠院儿·宴请婚礼生日(怪兽饮酒商店),39.8990854,116.3892703,588.0,创意菜,11:00,20:00,"露杰鸭肝-焦糖菠萝-杏仁粉,加拿大扇贝-橙肉-鱼子酱,餐前小吃"
115,扬州宴(北京店),39.9100481,116.4285885,454.0,江浙菜,11:00,21:00, 
116,兴顺饭庄(交道口南大街店),39.9338583,116.4086485,71.0,北京菜,10:30,22:00,"焦溜肥肠,兴顺腰花,鱼香肉丝,糖醋里脊,宫保鸡丁,干炸丸子"
117,荷唐·殿 Home Town Palace,39.9338615,116.4023585,335.0,创意菜,11:00,21:30, 
118,北京北平国际青年旅舍·北平花园·北平咖啡(南锣鼓巷店),39.935767,116.4030604,62.0,西餐,11:00,21:00, 
119,曲廊院(东四十一条店),39.9344995,116.4243506,857.0,创意菜,11:30,22:30,"酒花醉,白冬瓜汤,雨季野菌,软兜,香黄鸡,茶道牛肉,鸭稻鱼饭,水蜜桃"
120,伊藤ITO(侨福芳草地购物中心店),39.9212303,116.4488676,297.0,日本料理,11:30,22:00, 
121,老北京炙子烤肉(德胜门店),39.9340892,116.3797988,92.0,烧烤,10:30,22:00,"烤羊肉,烤牛肉,烤牛舌,炸窝头,烤鸡腿肉,烤大虾"
122,御仙都·北京菜馆(双井店),39.8996848,116.4557035,263.0,北京菜,11:00,21:00, 
123,奇门涮肉坊,39.9408488,116.4213686,125.0,火锅,11:00,03:00,"鸳鸯锅,鲜椒锅底,奇门小肋卷,经典双层肥牛,大刀手切鲜羊肉,鲜切花牛腱,奇门高钙羊肉,精品爆肚"
124,柳泉居饭庄,39.9337994,116.3731691,143.0,鲁菜,06:00,21:00,"京味爆三样盖饭,特色豆包,响油鳝糊,干炸小丸子,糟熘鱼片,宫保鸡丁"
125,板前十胜·和牛烧肉专门店(北京总店),39.9430066,116.3938279,586.0,日本料理,11:30,22:00, 
126,湘爱(工体店),39.9287768,116.4493579,330.0,湘菜,11:00,22:00, 
127,北平三兄弟涮肉(簋街店),39.9413839,116.4299878,140.0,火锅,10:00,03:00,"鲜切羊肉,鲜羊上脑,红柳羊肉串,芝麻烧饼,鲜羊瓜条,手切三叉,肉串,豌豆黄,缸子肉,小料"
128,东兴楼饭庄(东直门店),39.9413868,116.4304728,162.0,鲁菜,10:30,21:30,"葱烧关西参,干烧多宝鱼,烩乌鱼丸汤,东兴牛仔粒,火燎鸭心,东兴宫爆虾"
129,甬府尊鲜(国贸商城店),39.9116829,116.4602449,358.0,江浙菜,11:00,20:30,"堂灼十八斩,火焰花雕鸡,红烧米鱼,酱汁蒸带鱼,黄鱼春卷,沙蒜烧豆面"
130,拾久(东三环中路店),39.8990655,116.4608462,230.0,北京菜,11:30,21:30, 
131,屋里厢上海菜馆,39.9321498,116.4595991,462.0,本帮菜,11:00,21:30,"本帮熏鱼,响油鳝丝,百叶结红烧肉,蟹粉豆腐,开洋葱油拌面,沪市牛肉粒"
132,神户赤童日式烤肉(金地广场店),39.909032,116.4746094,168.0,日本料理,11:00,22:00, 
133,酷湘·江南庭院餐厅·士大夫湘菜(国贸店),39.9008052,116.4756814,522.0,湘菜,11:00,22:00, 
134,同和居(月坛店),39.9141893,116.3398818,141.0,鲁菜,10:30,21:00,"烤馒头,糟溜三白,三不粘,清炒虾仁,干炸丸子,九转大肠,糟溜鱼片,葱烧海参,炸小丸子,干炸两样"
135,淮扬府·游园京梦(北京SKP店),39.9104313,116.4789666,240.0,江浙菜,11:00,21:00, 
136,玖五京菜(环宇荟购物中心店),39.9778057,116.406454,222.0,北京菜,11:00,21:30, 
137,Tomacado花厨(朝阳大悦城店),39.9247783,116.5182985,197.0,西餐,11:00,22:00, 
138,浩爷羊蝎子火锅(双榆树店),39.9714389,116.3238326,149.0,火锅,11:00,22:00,"羊蝎子,天然豆皮,京味爆肚,白菜豆腐丝,白玉豆腐,浩爷葱花饼"
139,TIAGO HOME KITCHEN(颐堤港店),39.9706671,116.4920518,180.0,西餐,11:30,21:30,"战斧牛排,香蒜橄榄油煎虾,白葡萄酒柠檬烩海虹,松露蛋饼配帕尔玛火腿,香烤脆皮鸡配迷迭香及苹果,香煎三文鱼配时蔬及海鲜汤,巴斯克焦烧乳酪蛋糕配缤纷莓果,炸水牛芝士配水瓜柳酱,招牌波士顿龙虾意面,“巨无霸”和牛惠灵顿配鱼子酱"
140,初色海鲜自助火锅(万丰路店),39.8707842,116.2939873,337.0,自助餐,11:30,21:00,"雪蟹腿,海虾,龙利鱼片,象拔蚌,阿根廷红虾,鲜活鲍鱼,螃蟹,北极贝,扇贝,生蚝"
141,那家小馆(798艺术区店),39.9876398,116.4937315,170.0,北京菜,11:00,21:30,"塞外皇坛子,桃仁剔炒鸡,秘制酥皮虾,酱爆猪肝,那家自制豆腐,桂花山药"
142,提督·TIDU(荟聚中心店),39.7881609,116.3259189,233.0,北京菜,11:00,21:00,"金汤黑虎虾片,砂锅焗黑椒牛肉,招牌黑松露黑胡椒猪蹄煲,樱桃清酒鹅肝,提督糖油饼"
143,果园西餐厅,40.0404185,116.498857,256.0,西餐,10:00,20:30,"迷迭香烤鸡腿,挪威熏三文鱼鳄梨沙拉,黄金南瓜汤"
144,The Lotus Garden 莲花园,39.8535972,116.6798862,238.0,自助餐,06:30,22:00, 
145,陈记卤煮小肠,39.8969568,116.3953223,33.0,小吃,09:00,20:00, 
146,止观小馆·辽河口渔家菜(王府井店),39.9153568,116.4151771,800.0,东北菜,11:30,21:00, 
147,北京宴(金宝店),39.9151285,116.4220485,490.0,北京菜,10:30,21:30, 
148,沣元春饼馆(幸福巷店),39.8873321,116.4329974,68.0,小吃,11:00,21:00,"酱肘子,炒合菜,醋溜土豆丝,京酱肉丝,大酱炒鸡蛋,手工春饼"
149,东四民芳餐厅(朝阳门总店),39.9246828,116.4307575,109.0,北京菜,10:30,22:00,"鱼头泡饼,民芳干煸豆角,民芳带鱼,民芳宫保鸡丁,民芳乌梅汁,宫保鸡丁,芝麻酱糖饼,焦溜丸子,烤鸭,民芳肘子"
150,木马童话黑暗餐厅·私人定制(西单店),39.9140801,116.373122,368.0,西餐,11:00,23:00, 
151,峨嵋酒家(地安门店),39.9338059,116.3961116,90.0,川菜,11:00,20:30,"宫保鸡丁,鸡丝凉面,麻酱糖饼,峨嵋豆腐,干炸丸子"
152,北京民族饭店·四季餐厅,39.9077586,116.3669656,352.0,粤菜,11:00,21:00, 
153,日坛涮肉(日坛公园店),39.914663,116.4463283,161.0,火锅,11:00,22:30,"冷切羊上脑,手切鲜羊肉,手切滩羊后腿,冷切钻石杜泊羊,手切鲜牛外脊,牛魔王,烤羊肉大串,日坛特色烧饼,手切鲜牛花腱,海鲜全家福"
154,北京华彬费尔蒙酒店·刃餐厅,39.905416,116.4519166,346.0,西餐,11:30,21:00, 
155,万葉烧肉(后海店),39.9336246,116.3844081,350.0,烧烤,11:30,22:00, 
156,胡大饭馆(簋街三店),39.9408252,116.4176176,152.0,川菜,11:00,02:00,"胡大麻辣小龙虾,秘制麻辣板筋,辣炒花蛤,山城毛血旺,胡大经典香辣蟹,香辣美容蹄"
157,馅老满(安定门店),39.9430922,116.4086735,66.0,北京菜,10:30,21:30,"鲅鱼韭菜饺子,猪肉虾仁日本豆腐饺子,炸灌肠,乾隆白菜,炒肝,馅老满大拌菜"
158,富华斋饽饽铺(护国新天地店),39.9352209,116.3755613,67.0,面包甜点,09:00,21:00,"奶酪果子冰,秘制酸梅汤,五毒饼 (2),三清茶,玫瑰桂花栗蓉酥,酥子,如意芸豆卷,孙尼额芬白糕,杏仁豆腐,玫瑰豆蓉酥"
159,JEN北京新国贸饭店·三五堂·自助餐,39.9128881,116.4605649,213.0,自助餐,06:30,21:00, 
160,锅儿挑面馆,39.9472514,116.419054,38.0,小吃,11:00,21:00,"酱油老豆腐,章鱼丸,北京炸酱面,黑胡椒牛肉炒面,黑椒炒乌冬面"
161,聚德楼饭庄(劲松店),39.8867819,116.4620458,211.0,北京菜,10:00,22:00, 
162,北京三里屯通盈中心洲际酒店·盈中餐,39.9327493,116.4549799,344.0,粤菜,06:30,21:30, 
163,京彩臻品餐厅,39.9076623,116.4714185,592.0,自助餐,11:00,21:30, 
164,聚福源清真餐厅(洋桥店),39.8553365,116.3872919,91.0,清真菜,09:30,22:30,"聚福源招牌窝骨筋,炙子烤肉,糖醋脱骨带鱼,蒜爆羊肉,醋溜木须,羊肉串"
165,k泰星空帐篷烧烤·港式花胶鸡火锅(百子湾店),39.900782,116.4748546,204.0,火锅,11:30,03:00, 
166,The View 3912(CBD高空观景店),39.9072673,116.4770008,1178.0,西餐,10:00,24:00,"经典香煎鹅肝,巧克力熔岩蛋糕,香浓蘑菇汤配黑菌,火爆辣鸡香蒜披萨,西班牙燒蝦配麵包,餐前开胃鸡尾酒,熔岩巧克力,鹅肝大虾沙拉,西班牙烧虾,梦幻牛排配葡萄汁"
167,福满园(新源南路店),39.9476282,116.4512629,96.0,其他中餐,11:00,22:00,"红烧带鱼,排骨炖豆角,炸馒头片,酸辣土豆丝,小碗炖牛肉,老妈茄子"
168,老门框爆肚涮肉(方庄店),39.8522375,116.4386173,97.0,火锅,06:00,03:00,"手切鲜羊肉,爆肚十三吃,牛百叶,羊肚领,门钉肉饼,炸烧饼"
169,行运打边炉(三元里店),39.9528248,116.4563185,198.0,火锅,11:00,22:30, 
170,北京四季酒店·OPUS,39.9501731,116.4663275,262.0,西餐,06:00,00:30, 
171,旺顺阁鱼头泡饼(西客站店),39.9001582,116.3225525,148.0,北京菜,10:00,21:00, 
172,鲁采LU STYLE(环宇荟店),39.9779682,116.4062104,514.0,鲁菜,11:30,22:00, 
173,禧萃香港海鲜火鍋,39.9778351,116.3672065,336.0,火锅,11:00,22:00, 
174,北平楼(牡丹园店),39.9794089,116.3702365,142.0,北京菜,10:30,20:30,"爆肚,虾仁鸡里蹦,香酥黑金烤鸭,豆角烧茄子,亁隆白菜,腐竹拌丝瓜苗"
175,梦都酒家(万丰路店),39.8741995,116.295559,300.0,徽菜,10:30,22:00,"脆皮烤乳鸽,鲍鱼干锅炖,肥西土鸡汤,梦都红烧肉,芜湖虾子面,紫薯流沙酥"
176,伊尹海参馆(万丰路店),39.8719749,116.2954697,542.0,火锅,11:30,21:30,"杂粮炖海参,面包蟹姿造,菌菇拼盘,帝王蟹姿造"
177,椒鸣椒麻小馆·创始店HALAL(五道口店),39.9931687,116.3385156,98.0,新疆菜,11:00,22:00,"椒鸣凤仪椒麻鸡,椒鸣招牌过油肉拌面,椒鸣招牌辣爆小公鸡拌面,椒鸣招牌一品馕,椒鸣馕炒包包菜"
178,天厨妙香素食餐厅(清华店),39.9952074,116.3291821,85.0,素食,10:00,20:30,"随缘解馋,宫保翠珍,素水煮鱼,铁板素牛排,火焰豆腐,藕然巧合"
179,德云红事会馆,39.8729004,116.5516001,709.0,北京菜,09:00,21:30, 
180,旺顺阁鱼头泡饼(祥云小镇店),40.0867935,116.5383534,148.0,北京菜,10:30,21:00, 
181,诺金度假酒店–北京环球度假区·JIA 禾家中餐厅,39.8519871,116.6817258,400.0,粤菜,11:30,22:00, 
182,六必居(前门店),39.8958174,116.3976459,59.0,小吃,08:30,19:30,"酱黄瓜,八宝酱瓜,麻仁金丝,糖蒜,萝卜干,玫瑰大头菜"
183,铃木食堂(杨梅竹店),39.8960073,116.3936653,97.0,日本料理,11:30,21:30,"杏仁豆腐,金枪鱼沙拉,芥末章鱼,铃木肉饼,日式炸鸡块,猪排饭"
184,鲜入唯煮(金宝街店),39.9165558,116.4204175,260.0,火锅,11:30,23:00, 
185,洪记白水羊头(天坛店),39.8885575,116.4129551,61.0,小吃,07:30,19:30,"招牌白水羊头肉,羊脑,羊杂,羊蹄,羊眼,羊肝"
186,北京宜宾招待所(南翠花街店),39.9013271,116.3797336,116.0,川菜,10:30,21:00,"宜宾燃面,川香辣子鸡,酒都肥肠,干煸牛肉丝,川香毛血旺"
187,和禄德冰糖葫芦,39.9246179,116.4178817,7.0,小吃,08:00,20:00, 
188,面总肉酱面Ultra(东四店),39.9249816,116.4182618,32.0,小吃,07:30,22:30,"酸甜瓜条,丰都酸辣粉,芥末凉面,四川传统牛肉面"
189,北京索菲特大酒店·怡品堂·金宴 L'Or by YiPalace,39.9060026,116.4369887,280.0,北京菜,11:30,21:00,"招牌小火煨牛肉,荔枝芝士虾丸子,招牌炖千岛湖鱼头配葱花饼,黑蒜家烧海参活鳗"
190,鮨然(然寿司钱粮胡同店),39.9278467,116.4163945,1500.0,日本料理,18:00,22:00, 
191,北京铁手咖啡制造总局metalhands(东四店),39.9291546,116.4138351,71.0,咖啡店,10:00,19:00,"燕麦奶Dirty,藤黄无花奶酪,法式牛油果鸡蛋塔,澳白,夜来香"
192,京天红酒家(虎坊路店),39.8851422,116.3831727,56.0,其他中餐,07:30,21:00,"京天红天津炸糕,爆三样,鱼香肉丝,宫保鸡丁,独面筋,酸辣汤"
193,仿膳饭庄,39.9310434,116.3877595,212.0,北京菜,11:00,20:00,"乌龙吐珠,豌豆黄,圆梦烧饼,左宗棠鸡,核桃酥,素炒鳝丝,驴打滚,小窝头,艾窝窝,抓炒里脊"
194,三元梅园(西四店),39.9218534,116.373367,30.0,小吃,09:00,21:00,"红豆奶酪,杏仁豆腐,豆沙奶卷,纯奶糕,宫廷酸奶,燕麦双皮奶"
195,多味居(剪子巷店),39.9356695,116.4119147,100.0,云南菜,11:00,21:30,"过桥米线,椒盐风味平菇,焦溜莲藕丸,奶酥芋头,黑三剁,竹荪汽锅鸡"
196,聚恩园春饼宴(南锣鼓巷店),39.9378328,116.4022443,89.0,北京菜,11:00,23:00,"酱肘子,赛螃蟹,炒合菜,京酱肉丝,土豆丝,疙瘩汤"
197,粗粮人家·东北菜(东四十条店),39.9342411,116.4316392,88.0,东北菜,10:30,24:00,"锅包肉,东北大拉皮,排骨炖豆角,杀猪菜,韭菜盒子,猪肉炖粉条"
198,烤肉季饭庄,39.9391242,116.3940274,125.0,烧烤,07:00,22:00,"糖卷果,扒牛肉条,芫爆散丹,它似蜜,烤牦牛肉,烤羊排,麻豆腐,红烧牛尾（精品）,烧饼,烤羊肉"
199,晶浦会(百盛购物中心复兴门店),39.9081631,116.3583261,435.0,粤菜,11:00,22:00, 
200,清真·白记年糕(牛街北口店),39.886894,116.3632961,33.0,清真菜,08:00,20:00,"驴打滚,豌豆黄,紫米年糕,山楂糕,黄米面年糕,艾窝窝"
201,景泰马记电烤串,39.8650993,116.4141651,36.0,烧烤,10:00,21:00,"素丸子,羊腱肉串,糖火烧,羊肉串,烧饼,牛肉大葱包子"
202,北京嘉里大酒店·海天阁(嘉里中心店),39.9143045,116.459176,322.0,粤菜,11:30,21:30, 
203,伊峰餐馆(鼓楼店),39.943777,116.3885245,79.0,火锅,05:30,22:00,"鲜羊肉串,老北京爆肚,羊肉汆面,羊杂汤"
204,晶采轩(三星店),39.9122755,116.4650557,480.0,粤菜,11:00,21:00, 
205,潇湘阁(三里屯SOHO店),39.9329306,116.4529069,83.0,湘菜,10:30,21:30,"金钱蛋,手撕包菜,小炒肉,酸辣鸡杂,豆角茄子,干锅土豆片"
206,鼎香润(德胜门内店),39.9472303,116.3801409,73.0,北京菜,11:00,21:30,"卤煮火烧,肘子,炸灌肠,京酱肉丝"
207,承味堂,39.9318621,116.4586253,524.0,本帮菜,11:00,21:30, 
208,瓢嘻日本料理,39.9101203,116.4715809,520.0,日本料理,11:30,22:00, 
209,城南居(北电大厦店),39.8752237,116.3531779,85.0,北京菜,10:30,22:00,"烙饼卷带鱼,麻豆腐,精品烤鸭,宫保鸡丁,炸灌肠,城南居京酱肉丝"
210,暹罗泰·泰国餐厅(新源西里店),39.9476192,116.4473309,150.0,东南亚菜,11:00,22:00,"菠萝炒饭,冬阴功海鲜清汤,海鲜粉丝沙拉,木瓜沙拉,辣炒牛肉,焦糖布丁,泰式奶茶,草莓泡芙"
211,南京大牌档(西直门凯德店),39.9422478,116.3526351,75.0,江浙菜,11:00,21:30,"王府泡椒鸡,萝卜丝端子,金陵炸臭干,麻辣鸭血,虾黄豆腐,江米扣肉,桂花拉糕,苏式熏鱼,冰镇酒酿"
212,沃夫冈牛排馆(华贸店),39.911721,116.4814693,1000.0,西餐,11:30,22:00, 
213,九献(亮马桥店),39.9460127,116.4631698,874.0,创意菜,12:00,21:30, 
214,宣南居(六里桥店),39.8821484,116.3189433,50.0,小吃,06:00,21:00,"糖花卷,萝卜菜团子,红枣窝头,野菜团子,老北京门丁肉饼,蜜豆窝头"
215,庭院江南菜(三元桥·亮马桥店),39.961829,116.4641879,205.0,江浙菜,10:30,22:00, 
216,北京新青海喜来登酒店·青海餐厅,39.8641806,116.3224978,188.0,西北菜,11:30,22:00, 
217,淮扬菜品鉴堂(航天桥店),39.9253008,116.3110816,319.0,江浙菜,11:00,21:00, 
218,宝华斋老北京烧饼夹肉(赋霖商厦店),39.8517924,116.3317773,28.0,小吃,06:30,19:30,"烧饼夹肘子,羊肚丝汤,酱肘子,羊杂汤,小米粥,豆泡汤"
219,缦合宴(霄云路店),39.9650388,116.4735096,950.0,融合菜,11:30,21:00, 
220,万龙洲(亚运村店),39.989102,116.4130634,213.0,海鲜,10:30,22:00, 
221,北京北辰五洲皇冠国际酒店·亚洲咖啡园,39.9893471,116.4041404,287.0,西餐,17:30,21:30, 
222,范家小馆(紫竹桥店),39.9431263,116.3069171,101.0,北京菜,06:00,02:00,"范家宫保鸡丁,御满酥皮虾,范家四代传承酥香烤鸭,范式烧茄子,奶酪小鱼,私家麻婆豆腐"
223,品质伊骊(人大创始店),39.9683401,116.3055398,89.0,新疆菜,11:00,02:00,"烤腰子,馕炒莲花白,烤肉筋,烤羊肉串,大盘鸡"
224,爱江山(西四环店),39.9479295,116.2860401,386.0,韩国料理,11:00,22:00, 
225,乐园夜市场(五道口店),39.9996752,116.3403283,96.0,韩国料理,11:30,02:00,"韩式辣鸡爪,酱牛肉盖饭,玉米芝士,部队火锅,金枪鱼饭团,甜辣炸鸡"
226,澜悦港海鲜体验主题餐厅,39.8806931,116.2509983,287.0,自助餐,11:30,21:30, 
227,如意素食,39.9146963,116.1985082,37.0,素食,11:00,20:30,"素锅贴,干煸豆角,四季烤麸,干锅有机菜花,如意南瓜羹,蓝莓山药"
228,岸芷汀兰·法餐牛排,39.87604,116.6357467,599.0,西餐,10:00,22:00,"烤鸡腿串,烤鳗鱼,寿司板凳拼,金枪鱼沙拉,精致寿司,烤口菇"
229,北京首钢园香格里拉酒店·香景庭Shang Market,39.9155528,116.1498157,342.0,自助餐,06:30,20:30,"北京烤鸭,榴莲提拉米苏,虎皮大肉面,蜜汁烧椒猪肋排,老北京卤煮火烧,脆皮五花肉,大烤鳗鱼,跳跳糖烤鸭沙拉"
230,囍凤楼·臻选(北京环球城市大道店),39.8512259,116.6768278,95.0,粤菜,10:00,22:00,"春风得意红米肠,迷你一口鲜虾饺,雪影叉烧包,干炒牛河,鲍鱼汁鸡爪,鲜虾肠粉"
231,南京大牌档(王府井银泰in88店),39.9161907,116.4115732,74.0,江浙菜,11:00,21:30, 
232,北京华尔道夫酒店·紫金阁(王府井步行街店),39.9158503,116.4141818,644.0,粤菜,11:30,21:30,"紫金阁龙虾汤泡饭,东星斑,古法砂窝扣原只八头干鲍,浓汤鲜腐竹浸丝瓜,招牌鸳鸯叉烧,莲藕千层萝卜酥,杨枝甘露,帝王蟹,XO酱皱皮椒香煎螯龙虾,鲜奶炖燕窝"
233,Berry Beans(前门店),39.8944303,116.3923719,66.0,咖啡店,10:00,19:00,"黑糖玉桂拿铁,香草拿破仑,椰子冰拿铁"
234,老磁器口豆汁店(天坛店),39.88876,116.4128138,19.0,小吃,06:00,20:00,"豆汁,焦圈,糖火烧,肉饼,驴打滚,炒麻豆腐"
235,坤宁東院,39.9211157,116.3973455,69.0,面包甜点,08:30,16:00,"拿铁,馥郁杨梅妃子饮,乾隆奶茶,红豆沙,秋果粉蝶,大吉葫芦"
236,香妃烤鸡(西单店),39.9117722,116.376726,31.0,快餐简餐,06:30,20:30,"香妃烤鸡,素什锦,酸辣黄瓜条,香酥烧饼,风味海带丝"
237,北京泛太平洋酒店· 榉·日本料理,39.91128,116.37163,344.0,日本料理,11:30,21:00, 
238,小肠陈饭庄(南横街店),39.8831231,116.3760043,60.0,小吃,10:30,22:00,"卤煮火烧,爆肚,老北京芥末墩,蓑衣黄瓜,炸灌肠"
239,脑子加工厂(南锣鼓巷总店),39.9401365,116.4040115,86.0,烧烤,11:30,24:00,"招牌烤脑花,日式烤大牛舌,烤棉花糖,贪火鸡皮,浓汤泡饭"
240,天泽祥·鼓楼馒头(鼓楼店),39.9409841,116.4026185,16.0,小吃,07:30,19:00,"豆包,糖三角,黄米凉糕,奶皮酥,花卷"
241,大堂酒廊(中国大饭店),39.909969,116.459419,179.0,面包甜点,09:00,22:00, 
242,南城香(新街口店),39.9384894,116.3726537,26.0,快餐简餐,06:30,21:00,"安格斯肥牛饭,香菇大馄饨,虾仁大馄饨,老坛酸菜鱼饭,照烧鸡肉饭,黄焖鸡饭"
243,百叶居·老北京涮羊肉(赵登禹路店),39.9365802,116.367955,139.0,火锅,11:00,21:30, 
244,Drawing Room(北京三里屯CHAO店),39.933041,116.451609,257.0,西餐,07:00,17:00, 
245,Some Some cocktail&kitchen,39.9384616,116.4538085,220.0,融合菜,11:00,23:00, 
246,鸿宾楼(展览馆路店),39.9278453,116.3434738,210.0,清真菜,11:00,20:30,"红烧牛尾,芫爆散丹,砂锅羊头,松鼠桂鱼,宫保虾球,红烧牛筋"
247,北京厨房(SKP店),39.9107263,116.4791025,360.0,粤菜,11:00,21:30,"玻璃皮润烤乳鸽皇,杨枝甘露,野菌贡菜饺,吊烧蜂蜜叉烧,高温爆烧三层肉,龙虾汤泡饭,鲜蟹肉龙虾汤包"
248,北京国贸CBD亚朵S酒店xFunsCenter·寂川(大望路店),39.9153116,116.4783089,276.0,川菜,11:30,21:30,"雪花牛配麻婆豆腐,怪味松阪肉,青椒花椒牛蛙,辣子鸡,蒜泥排骨肉,水煮肥肠"
249,新紮師兄冰室·牛腩煲火锅(合生汇店),39.894102,116.4809186,65.0,粤菜,10:30,21:30,"厚切蜜汁叉烧,海虾浓汤泡饭,爆蛋菠萝包,鲜油菠萝包,虾子云吞面,炸豆腐"
250,荣季-95·小海鲜酒馆,39.9111184,116.4817936,377.0,江浙菜,11:30,02:00, 
251,表哥香港海鲜火锅(新源街店),39.9494438,116.4557139,260.0,火锅,11:00,22:30, 
252,壮壮酒馆 Bistro Strong,39.950226,116.4766587,260.0,酒吧/酒馆,11:00,23:30, 
253,北京海航大厦万豪酒店·彩海轩中餐厅,39.9599605,116.4674447,166.0,海鲜,11:30,22:15,"京葱孜然羊肉,无花果枸杞炖鸽皇,云雾老椰鸡汤炖花胶,海参老虎菜,柠香脆皮小青龙,毛切瓜高汤蛏皇,珊瑚燕麦玲珑虾球,玉女瓜鱼子酱墨鱼仔,甜豆百合炒银鳕鱼,红樱桃番茄陈皮牛肋排"
254,中央电视塔旋转餐厅,39.9194455,116.3067357,291.0,自助餐,11:00,21:00, 
255,四季会酒店真粤中餐厅,39.926189,116.526421,207.0,粤菜,07:00,22:30, 
256,重八牛府(花乡奥莱店),39.8276937,116.3243218,105.0,火锅,11:00,22:00, 
257,南京大牌档(望京凯德店),39.9937187,116.4680192,74.0,江浙菜,11:00,21:30, 
258,眉州东坡(亚运村店),40.005486,116.4052479,93.0,川菜,06:30,22:00,"麻婆豆腐,传家东坡肘子,传统地道冒血旺,宫保鸡丁,眉州小笼包,担担面"
259,旺顺阁鱼头泡饼(小红门店),39.8089746,116.4735566,152.0,北京菜,10:00,22:00, 
260,Zam Zam Restaurant印巴餐厅,40.0049928,116.35207,121.0,自助餐,11:00,23:00,"薄荷香菜鸡块,印度馕饼,特色牛肉咖喱,螺旋意面,红咖喱烤鸡,ChannaMasala鹰嘴豆咖喱"
261,日哦肉(永定路店),39.9041344,116.264435,68.0,小吃,10:00,19:00,"猪蹄,酱猪肘,酱鸭翅,老汤,熏鸡"
262,老红桥炸灌肠牛肚锅烧烤(定福庄店),39.9155729,116.551874,75.0,小吃,10:00,24:00,"童年炸羊肉串,烤扇贝,卤煮火烧,牙签肉,童年炸鸡肉串,牛肉饼"
263,北京观禾酒店·CLUB禾西餐厅,40.01387,116.469086,93.0,西餐,11:30,21:30, 
264,北京颐和安缦酒店·镜影轩,39.9991719,116.2822422,481.0,咖啡店,12:00,21:00, 
265,安诚居干锅鸭头(八角店),39.9105465,116.2015563,91.0,川菜,10:30,22:00,"主打的干锅鸭头,东北拉皮,麻团,大拌菜,凉拌木耳,老醋花生"
266,孙记驴肉山庄(李桥店),40.0348095,116.666245,105.0,其他中餐,10:00,21:30,"驴肉火烧,蓝莓山药,酱香驴板肠,椒麻散花菜,驴腩豆角焖卷子,驴肉蒸饺"
267,朱雀山庄(红螺寺店),40.3719689,116.6261247,80.0,农家菜,09:00,22:00,"烤虹鳟鱼,烤羊排,栗子焖肉,摊柴鸡蛋,炸花椒芽,家常豆腐"
268,社会主义好农村食堂(雁栖湖总店),40.3911823,116.6908823,86.0,北京菜,09:00,23:00,"烤虹鳟鱼,炖散养大公鸡,炸花椒芽,自制开包豆腐,拌野菜,摊柴鸡蛋"
269,也行Cafe,40.2405869,117.1524522,88.0,咖啡店,09:30,18:00,"dirty,经典美式,提拉米苏,栗子蒙布朗,山楂野山椒,焦糖山核桃肉桂卷"
270,京都里·精致自助餐(崇文门店),39.9014079,116.4169456,207.0,自助餐,11:00,21:30, 
271,na+,39.8983703,116.3960387,480.0,融合菜,17:00,21:30, 
272,之参餐厅(前门大街店),39.8943024,116.3981312,326.0,川菜,11:30,21:30,"开水白菜,燃汁剔炒宫保鸡,海烩全丝,漳茶鸭子,灯笼鸡,鲍汁猪脚,干烧冬笋,咕咾虾"
273,四季民福烤鸭店(王府井灯市口店),39.918304,116.4087862,162.0,北京菜,10:30,21:30,"老北京炸酱面,宫廷杏仁豆腐,巧拌豆苗,宫保鸡丁,贝勒烤肉,蜜汁酥皮虾,小吃拼盘,豌豆黄,芥末鸭掌"
274,O.M.G.Coffee(天坛店),39.8880104,116.4214474,44.0,咖啡店,09:00,18:00,"澳白,奶盖dirty,西班牙火腿芝士开放三明治,百香果手工芝士蛋糕,椰子芝士蛋糕,草莓燕麦脆配核桃仁有机酸奶"
275,川京办招待所(北京站店)·川办餐厅,39.9117601,116.4317708,95.0,川菜,11:00,21:00,"口水鸡,夫妻肺片,毛血旺,川北凉粉,宫保鸡丁,麻辣水煮鱼"
276,故宫角楼咖啡(故宫店),39.9225636,116.3963671,53.0,咖啡店,08:30,17:30,"养心卷,乌金姜糖拿铁,香栗拿铁,养心咖啡,千里江山卷,紫荆卷"
277,增盛魁小吃店,39.9276647,116.4110306,16.0,小吃,06:00,21:00,"糖油饼,豆腐脑,羊肉烩面,牛肉包子,羊杂碎,爆肚"
278,北京长富宫饭店·兰花台咖啡厅,39.90769,116.4378721,258.0,自助餐,05:00,23:59, 
279,北京瑞吉酒店·大堂酒吧,39.9109005,116.4402257,231.0,面包甜点,09:00,24:00, 
280,北京瑞吉酒店·景苑咖啡厅,39.9110011,116.4401999,350.0,自助餐,06:00,21:30,"进口现开生蚝,海鲜冰台,虾,波士顿龙虾,三文鱼,树莓挞,螃蟹,火鸡外带,扇贝"
281,宝瑞门钉肉饼店,39.9302599,116.4257665,33.0,小吃,10:00,21:00,"门钉肉饼,麻豆腐,拍黄瓜,芹菜花生米,酱牛肉,皮蛋豆腐"
282,黑窑厂糖油饼羊蝎子(黑窑厂街店),39.8817048,116.3814971,23.0,小吃,06:00,21:30,"双倍糖油饼,牛舌饼,牛肉馅包子,羊杂汤,炸豆腐,豆腐脑"
283,串卫门烧鸟居酒屋(悠唐广场店),39.9223311,116.4399236,193.0,日本料理,17:00,01:00, 
284,大华煎饼(交道口北剪子巷店),39.9367995,116.4120199,12.0,快餐简餐,06:00,13:00,"招牌双蛋煎饼,双蛋煎饼加肠,纯肉肠煎饼,培根煎饼,大华芝香四溢芝士煎饼"
285,真地道京味府·鲜橙烤鸭(西单店),39.9053897,116.3645537,112.0,北京菜,11:00,21:00,"精品鲜橙烤鸭,乾隆白菜,炸灌肠,干炸小丸子,芥末墩,招牌炸酱面"
286,北新桥卤煮老店(北新桥店),39.9372329,116.416858,50.0,小吃,10:30,04:00,"大小肠卤煮,蒜泥茄子,北冰洋,蓑衣黄瓜,肉皮冻,小肠卤煮,姜汁松花蛋,刀削面,北冰洋汽水,四川泡菜"
287,方砖厂69号炸酱面(方砖厂胡同店),39.9382187,116.3998488,28.0,小吃,10:00,19:00, 
288,古铜老院铜锅涮肉·清真(西四店),39.9265148,116.3730496,101.0,清真菜,11:00,22:00,"三羊开泰精品鲜羊肉,不一样的大片毛肚,呼伦贝尔小羔羊肉卷,糖火烧,手切呼伦贝尔羊腱子,手工鲜切羊肉串,金牌小串,古法现磨芝麻酱"
289,静水StillWater(南锣鼓巷店),39.941007,116.4055188,58.0,咖啡店,09:30,20:00, 
290,北京中国大饭店·The Sweet Spot美食店,39.909368,116.4582343,57.0,面包甜点,08:00,20:00,"奶油卷,脏脏包,巧克力榛子奶油卷,奶油卷树莓,芒果奶油卷,榴莲奶油卷"
291,北京国贸大酒店·云·酷 Atmosphere,39.9125144,116.4585548,409.0,酒吧/酒馆,17:00,02:00, 
292,烤肉宛饭庄(南礼士路店),39.9109244,116.3528517,132.0,清真菜,10:30,22:00,"烤牛肉,烤精品羊肉,芫爆散丹,宫爆虾球,糖熘卷果,红烧牛尾"
293,葫芦娃牛板筋火锅(鼓楼店),39.9467359,116.3896652,80.0,火锅,10:30,23:00,"牛板筋火锅,牛肉,牛肚,泡饼,蔬菜沙拉"
294,南来顺饭庄·清真(南菜园店),39.8706734,116.3543381,75.0,北京菜,06:30,21:00,"艾窝窝,豆腐脑,烤羊肉串,奶油炸糕,面茶,驴打滚"
295,北京燕莎中心凯宾斯基饭店·普拉那啤酒坊Paulaner,39.9486458,116.4629105,295.0,西餐,11:30,23:30, 
296,一岚一山(角门总店),39.8471574,116.3765691,84.0,火锅,11:30,24:00,"霸道小土豆,杠上脑花,纠结千层肚,麻辣牛肉丝,红糖糍粑,招牌兔头"
297,楊老黑卤煮,39.8868823,116.3251113,64.0,小吃,10:30,22:00,"麻豆腐,芥末墩,卤煮小锅,干炸丸子,脆皮大肠,爆肚"
298,旺顺阁鱼头泡饼(燕莎奥特莱斯店),39.878542,116.4865658,148.0,北京菜,10:00,22:00, 
299,南京大牌档(凯德晶品店),39.9082638,116.2977472,74.0,江浙菜,11:00,21:30, 
300,九朝会·创意菜(望京店),39.9826998,116.4558692,382.0,创意菜,11:00,22:00, 
301,提督·TIDU(朝阳大悦城),39.9239914,116.5189086,265.0,北京菜,11:00,21:00,"五味三吃鱼子酱烤鸭Roasted Duck Served in Three Styles,招牌黑胡椒猪蹄煲Braised Pork Trotter with Black Pepper in Clay Pot,樱桃清酒鹅肝Cherry Flavored  Foie Gras Balls ,意大利黑醋咖啡咕噜肉Deep-fried Pork with Coffee and Balsamic Vinegar,鲜露汁火焰焗玉带Pan-fried Scallops with Seafood Sauce,加拿大波士顿龙虾Boston Lobster ,黄金白菜文火鸭汤Double Boiled Duck Soup with Chinese Cabbage and Wolfberry,京葱爆羊后腿Stir-fried Sliced Lamb Leg with Peking Scallion,樱花虾炒空运山苏Fried Bird's Nest Fern with Red Cherry Shrimps,川麻秋葵螺片Spicy Sliced Sea Whelk with Okra"
302,95号酱骨·一块豆腐(展春园西路店),39.9883425,116.3402402,84.0,东北菜,11:00,21:00,"特色大铁锅烀腔骨,特色炒棒骨,一块豆腐,东北大拉皮,软炸蘑菇,肉沫菌香土豆泥"
303,旺顺阁鱼头泡饼(圣熙八号店),40.0096894,116.3537874,144.0,北京菜,10:30,22:00, 
304,旺顺阁鱼头泡饼(北辰上品+),40.0321053,116.4172372,145.0,北京菜,11:00,21:00, 
305,永顺炸鸡(北京总店),39.91371,116.6572818,34.0,小吃,08:00,22:30,"脆皮烤鸭,琵琶腿,八珍烤鸡,鸡腿,农夫烤鸡"
306,昌顺马记小吃店(昌盛园店),40.2106707,116.2573147,25.0,小吃,06:00,13:30,"肘子肉,羊杂汤,坛子肉,胡辣汤,豆泡汤,小米棒碴粥"
307,旺顺阁鱼头泡饼(乐多港万达店),40.2307929,116.1901679,142.0,北京菜,10:00,21:30, 
308,Hobo Farm,40.6430969,117.3067073,466.0,西餐,12:00,21:00,"农场烤鸡,M3西冷牛排,意式传统烩鳕鱼,巴斯克蛋糕,传统奶油培根意面,洋姜汤"
309,谭家菜(东长安街店),39.9087515,116.4104323,1450.0,北京菜,11:30,22:00, 
310,北京崇文门饭店·马克西姆餐厅,39.9002809,116.4177992,559.0,西餐,11:30,21:00,"澳洲和牛M5+西冷牛排配陈年意大利醋 奶油芝士汁 芦笋 小胡萝卜 番茄和黑胡椒汁,澳洲带子配鱼子酱配时令蔬菜配树莓汁,香煎深海鲈鱼配凤尾大虾、秋葵炒蘑菇、海鲜汁,草莓拿破仑千层酥,澳洲安格斯牛柳&法国鹅肝配陈年意大利醋 奶油芝士汁 芦笋 小胡萝卜 番茄和黑松露汁,大虾牛油果塔配黑鱼籽酱 春葱碎 奶油香辣汁 风味柠檬油,焦糖布丁,牛清汤配虫草花、牛尾肉、鹌鹑蛋,野生牛肝菌蘑菇汤佐黑松露油,香煎深海比目鱼配藏红花米饭，风干番茄酱，抹茶粉，秋葵和海鲜汁"
311,北京胡同烤鸭(前门店),39.8985104,116.3948931,106.0,北京菜,10:30,21:30,"北京烤鸭,老北京卤煮,椒盐鸭架"
312,四季民福烤鸭店(王府井东安门店),39.9155434,116.408058,168.0,北京菜,10:30,21:30, 
313,北京丽晶酒店·大堂酒廊,39.9161363,116.4188597,253.0,咖啡店,08:00,24:00, 
314,北京金茂万丽酒店·R BAR大堂吧,39.9211998,116.4104919,250.0,咖啡店,08:00,22:00,"司康饼,卡布奇诺,闪电泡芙,伯爵茶,马卡龙,蓝莓塔"
315,萬春金福下午茶(故宫店),39.921061,116.3971143,77.0,咖啡店,10:00,15:30,"桂花红豆沙,黑芝麻核桃糊,醪糟绿豆汤,金福拿铁,玫瑰馅儿寿桃点心"
316,汇兴居·老北京小吃(体育馆西路店),39.8864695,116.4230207,34.0,小吃,06:00,21:00,"炒肝,卤煮火烧,油饼,素三鲜包子,炸灌肠,炸咯吱"
317,北京长富宫饭店·日本料理樱,39.9076706,116.4379576,1128.0,日本料理,11:30,22:00, 
318,北喜料理(SOGO新馆店),39.8961879,116.3753402,245.0,日本料理,11:00,21:00, 
319,李记白水羊头(白桥大街店),39.8960144,116.4395711,90.0,北京菜,10:30,22:00,"炙子烤羊肉,白水羊头,特色面食羊肉汆面,特色爆肚,芝麻烧饼,精品羊杂汤"
320,南京大牌档(西单食宝街店),39.9140629,116.3733042,75.0,江浙菜,11:00,21:30, 
321,文府大厨铁板烧(长安街西单店),39.9095349,116.3709026,298.0,自助餐,11:30,21:30, 
322,清真·鸦儿李记·快餐(后海店),39.9394989,116.3930983,61.0,小吃,05:30,21:30,"烧饼,羊杂汤,爆肚"
323,杏园餐厅(西四北大街店),39.9315311,116.3733032,59.0,北京菜,06:00,21:00,"干炸丸子,糖醋里脊,牛肉,过油肉,小炖肉面,软炸虾仁,浇汁豆腐,焦熘丸子,三鲜锅巴"
324,PAKPAK喜悦泰国餐厅(远洋光华国际店),39.9160324,116.4544786,136.0,东南亚菜,11:30,22:00, 
325,旺顺阁鱼头泡饼(新城广场店),39.8675254,116.4220209,141.0,北京菜,10:30,21:30, 
326,旺顺阁1999(财富购物中心店),39.9177065,116.4597282,152.0,北京菜,10:00,22:00, 
327,信园,39.9487024,116.4150762,1080.0,粤菜,11:00,22:00,"家烧东海大黄鱼,江南文火焖牛肉,鲍鱼焖老上海红烧肉,砂锅鸡汤,温州麦香炒面,麻婆波士顿龙虾"
328,本垒美式烤肉(三里屯店),39.9323436,116.4571417,181.0,西餐,11:00,22:00,"烤肉三拼,切牛胸板肉拼盘,猪肋排,鸡翅,单层芝士汉堡,烤猪软骨,手撕猪肉拼盘,烟熏烤鸡 half chicken,手撕猪肉汉堡,牛肉芝士薯条"
329,Hatsune隐泉日式料理(三里屯太古里店),39.9354608,116.4551044,263.0,日本料理,11:30,22:00, 
330,帕米尔食府(白云观店),39.8979864,116.3418246,95.0,新疆菜,06:00,21:30,"新疆羊肉串,烤包子,新疆拉条子,新疆炒面片"
331,旺顺阁鱼头泡饼(大望路店),39.9064661,116.4774121,168.0,北京菜,11:00,22:00, 
332,南京大牌档(华贸购物中心店),39.9091389,116.4803107,79.0,江浙菜,08:00,21:30, 
333,旺顺阁鱼头泡饼(西铁营店),39.860857,116.356727,148.0,北京菜,10:30,21:30, 
334,旺顺阁鱼头泡饼(棕榈泉店),39.932483,116.4787384,152.0,北京菜,11:00,21:00, 
335,南京大牌档(龙湖丽泽天街店),39.8663345,116.3346044,76.0,江浙菜,11:00,21:30, 
336,SPACELAB失重餐厅(蓝色港湾店),39.9485544,116.4756177,125.0,西餐,11:30,21:00, 
337,正院大宅门(首体店),39.9335633,116.326558,283.0,北京菜,11:00,21:00, 
338,金谷园饺子馆(北邮总店),39.966207,116.3605354,57.0,快餐简餐,10:00,22:00,"鲅鱼饺子,葱麻鸡,青瓜鲜虾饺子,锅贴香辣牛肉,凉菜果仁菠菜,热皮蛋瘦肉粥"
339,旺顺阁·北京菜(城乡华懋店),39.9091937,116.3079746,148.0,北京菜,10:30,21:30, 
340,旺顺阁鱼头泡饼(奥体店),39.9829896,116.4091978,152.0,北京菜,11:00,22:00, 
341,旺顺阁鱼头泡饼(魏公村店),39.9534803,116.3244091,153.0,北京菜,10:00,21:30, 
342,旺顺阁鱼头泡饼(达美中心店),39.937329,116.5161456,147.0,北京菜,10:00,21:00, 
343,水木锦堂·自助铁板烧(望京凯德MALL店),39.9938278,116.4678698,283.0,自助餐,11:00,22:00,"鹅肝蒜香面包,北极贝,深海鳕鱼,奶香凤尾虾,烤虾,扇贝,铜锣烧,元宝虾"
344,聚宝源(望京店),40.003478,116.4683376,124.0,火锅,10:00,22:00, 
345,旺顺阁鱼头泡饼(丰科万达店),39.824096,116.2997354,135.0,北京菜,10:30,21:00, 
346,南京大牌档(龙湖长楹天街店),39.9251381,116.5976614,79.0,江浙菜,11:00,21:30, 
347,金岸海鲜自助餐厅,39.9263257,116.5986377,283.0,自助餐,11:00,21:30, 
348,旺顺阁鱼头泡饼(昌发展万科店),40.0668806,116.3167573,143.0,北京菜,10:30,21:00, 
349,北京通州北投希尔顿酒店·青雅中餐厅,39.9088049,116.6597482,340.0,其他中餐,11:30,21:30,"古法醋焖红烧肉,蜜汁酱汁凤爪,招牌鱼子酱烤鸭,低温慢烤牛肋骨,虾饺皇,红菇炖土鸡,杨枝甘露"
350,Shang Brew 香啤坊,39.921279,116.1545879,169.0,西餐,11:00,21:30,"钢堡,脆烤猪肘,香肠拼盘,迷你芝士汉堡"
351,北京日出东方凯宾斯基酒店·Magnolia,40.387184,116.67749,339.0,粤菜,11:30,21:30, 
352,北京延庆源宿酒店·源膳全日餐厅,40.471459,115.984589,149.0,西餐,11:00,23:00, 
353,The View 4109(国贸观景店),39.9073338,116.4769667,1065.0,西餐,10:00,24:00, 
354,北京王府井文华东方酒店·MO Bar(王府中环店),39.9124243,116.4094115,304.0,酒吧/酒馆,16:00,24:00, 
355,德永枣香烤鸭(王府中环店),39.9126524,116.4092951,225.0,北京菜,11:00,21:30, 
356,老北京炸酱面大王(崇文门店),39.8970261,116.4152303,54.0,小吃,10:00,22:00,"鸡蛋炸酱面,炒肝,豌豆黄,芥末墩,京味爆肚,京酱肉丝"
357,天兴居(鲜鱼口街店),39.8962107,116.3998903,31.0,小吃,07:00,20:00,"猪肉大葱包子,猪肉三鲜包子,芥末墩,炒肝,炸灌肠,卤煮火烧,糖火烧"
358,星巴克臻选(北京市北京坊店),39.8979801,116.3968713,73.0,咖啡店,08:00,22:00, 
359,四季民福烤鸭店(前门廊房二条店),39.897098,116.3972135,136.0,北京菜,10:30,21:30, 
360,四季民福(前门店),39.8962177,116.3976104,153.0,北京菜,10:30,21:30, 
361,河沿春饼(王府井店),39.9155741,116.4083039,58.0,小吃,10:00,21:00,"炒合菜,老汤酱肘花,三色春饼,韭菜炒豆芽,京酱肉丝,香辣里脊丝"
362,眉州东坡(王府井店),39.915867,116.4117942,104.0,川菜,10:00,22:00, 
363,北京王府半岛酒店·屋顶酒吧 Yun Summer Lounge 半岛雲景廊,39.9150143,116.4164092,211.0,酒吧/酒馆,18:00,01:00,"云淡风轻,落日云迹,芭乐,琼浆玉椰"
364,国家大剧院·西餐厅,39.9047869,116.3897224,236.0,西餐,11:30,20:00, 
365,故宫餐厅(景运门店),39.9191704,116.3983902,64.0,小吃,08:30,16:00,"宫保鸡丁饭,土豆烧牛肉盖饭,一品牛肉面,咖喱牛肉饭,香菇鸡肉面,蒸饺"
366,丰泽园饭店,39.8907559,116.394497,215.0,鲁菜,11:00,20:30, 
367,西来顺饭庄(北新华街店),39.9016546,116.3843392,99.0,清真菜,06:00,22:00, 
368,小街卤煮(朝阳门店),39.9174797,116.4263282,43.0,小吃,10:00,23:00,"卤煮火烧,炸灌肠,风味炸咯吱,卤煮拉面,姜汁松花蛋,炸窝窝头"
369,悦宾饭馆(翠花胡同店),39.9238932,116.4075828,93.0,北京菜,11:00,21:00,"蒜泥肘子,五丝桶,面筋扒白菜,锅塌豆腐盒,糖醋排骨,干烧黄鱼,糖醋里脊"
370,友谊餐馆(永安路店),39.8865772,116.3933583,70.0,川菜,11:00,20:00,"宫保鸡丁,醋溜土豆丝,三鲜锅巴,鱼香肉丝,糖醋里脊,酸辣汤"
371,大槐树烤肉馆(东街店),39.9254191,116.4102498,103.0,烧烤,11:00,23:00,"猪五花,牛舌,鸡蛋炸馒头片,烤香菇,鱿鱼,精品肥牛"
372,大海碗(天桥百货商场店),39.8806221,116.3981711,69.0,北京菜,10:30,20:30,"豌豆黄,炸酱面,炸灌肠,京酱肉丝,乾隆白菜,老北京爆肚"
373,披萨秀THE PIZZA SHOW(芳草地店),39.919632,116.448292,117.0,西餐,10:00,22:00, 
374,黑松白鹿(世贸天阶店),39.9160839,116.4510059,300.0,自助餐,11:30,22:00, 
375,真地道京味府·鲜橙烤鸭(东大桥店),39.9220481,116.4476991,98.0,北京菜,11:00,21:30, 
376,四合轩(国贸店),39.908974,116.454867,152.0,北京菜,11:30,21:00, 
377,红巷子·川菜(簋街店),39.94064,116.41718,140.0,川菜,11:00,23:00, 
378,裕德孚老北京涮羊肉(东直门内大街店),39.9408102,116.4182256,149.0,火锅,11:00,23:30,"小三岔,羊筋肉,茼蒿,黑百叶,冻豆腐,炸豆皮"
379,缘赵记(沙子口店),39.8651488,116.4017298,41.0,小吃,07:00,20:00,"炒肝,素包子,酸辣瓜条,炖吊子"
380,Toast at The Orchid,39.9433001,116.3993997,170.0,西餐,10:00,21:30,"阿芙佳朵,手工烘焙饼干,地瓜地瓜，我是红薯,松脆牛肉塔吉,椰奶南瓜汤,铁板烘蛋"
381,北京金融街威斯汀大酒店·Prego意大利餐厅,39.9181987,116.3590627,399.0,西餐,11:30,21:30, 
382,北京柏悦酒店·锦庭 Dining Room,39.9074225,116.4592112,497.0,其他中餐,11:30,22:30, 
383,雪崴(中国红街店),39.9321851,116.4508393,1085.0,日本料理,12:00,20:00,"天妇罗车虾,芦笋天妇罗,墨鱼天妇罗,虾头,紫苏海胆,星鳗天妇罗,香菇天妇罗,白子天妇罗"
384,北京瑰丽酒店·龙庭 The House of Dynasties,39.9201997,116.4606766,706.0,粤菜,11:30,22:00, 
385,北京瑰丽酒店·怡庭Bistrot B,39.9203207,116.4607007,500.0,西餐,06:30,22:00, 
386,洪福亮酒家(南草厂街店),39.9363292,116.3639718,64.0,其他中餐,11:00,23:00,"宫保鸡丁,炸平菇,手撕包菜,糖醋里脊,软炸虾仁,水煮牛肉"
387,北27號·廿七禾尚,39.936425,116.45473,61.0,小吃,11:00,21:30,"兰州酿皮,姥姥家臊子面,炒凉粉,年糕,打烊拌面,灰豆子"
388,门框胡同褡裢火烧(赵公口店),39.8557351,116.4139453,67.0,小吃,10:30,21:00,"褡裢火烧,干炸丸子,炸松肉,窝头臭豆腐,灌肠,框爆肚"
389,四眼仔车仔面(三里屯店),39.9366431,116.455012,67.0,小吃,11:00,21:00, 
390,金生隆(六铺炕店),39.9524272,116.3903135,162.0,火锅,11:30,21:30,"羊肚仁,门钉肉饼,黄瓜条,羊散丹,羊上脑,烧羊肉"
391,小吊梨汤(团结湖店),39.929204,116.464044,91.0,北京菜,11:00,21:30, 
392,S0 since zero蔓兰家的四季(当代MOMA店),39.950592,116.438781,190.0,创意菜,06:30,21:00, 
393,前里·台州鱼市(北京SKP店),39.9107526,116.478422,477.0,江浙菜,11:00,22:00,"煎鲳鱼,家乡麦饼,蟹焗面,酥炸水潺,姜汁猪肚鸡,食饼筒"
394,TWG Tea(SKP店),39.9095965,116.478803,146.0,面包甜点,10:00,22:00,"高级定制茗茶系列,甜蜜双人下午茶套餐,手工纯棉茶包,茶香马卡龙"
395,紫光园(红庙总店),39.9157641,116.4812229,79.0,清真菜,05:00,21:30, 
396,珍海肴海鲜自助餐厅(松榆南路店),39.8710191,116.4753967,308.0,自助餐,11:00,21:30, 
397,海碗居(增光路店),39.9279532,116.3305381,78.0,北京菜,11:00,22:00,"老北京炸酱面,炸灌肠,爆肚,关家麻豆腐,炒红果,芥末墩儿"
398,无名居(西直门总店),39.9466499,116.3421154,293.0,江浙菜,10:30,21:00, 
399,一代目いちだいめ,39.9557204,116.4686916,241.0,日本料理,17:30,01:00, 
400,海记·德顺斋,39.9746247,116.4043267,60.0,小吃,06:00,21:30,"京东牛肉饼,炖牛肉,醋溜木须,五香炸蘑菇 ,炖筋头,羊杂汤"
401,潮香宫,39.897968,116.311981,322.0,粤菜,11:00,21:30, 
402,柳林烤鸭店(公主坟店),39.9115661,116.3111198,94.0,北京菜,10:30,21:30,"烤鸭,水煮鱼,宫保鸡丁,鱼香肉丝,锅包肉,柳林大拌菜"
403,德川家日本料理(中关村店),39.9590619,116.3236263,267.0,自助餐,11:00,21:00, 
404,北京香格里拉饭店·香宫,39.9442479,116.3082788,424.0,粤菜,11:30,22:00, 
405,牛角日本烧肉(朝阳大悦城店),39.924001,116.518112,225.0,日本料理,11:00,21:00, 
406,京饭儿(双榆树店),39.9687113,116.3268868,84.0,北京菜,10:30,21:30,"老北京挂炉烤鸭,乾隆白菜,焦溜丸子,脆皮肘子,贝勒爷烤肉,京味素烧茄子"
407,德仁居烤鸭店(望京店),39.9824906,116.4705258,93.0,北京菜,10:30,21:00, 
408,聚十三烤肉博物馆(望京店),39.992691,116.4557528,112.0,烧烤,11:00,23:00,"烤肉摩天轮,十三天梯,聚十三秘制牛排,烤虾,骰子牛肉(牛肉粒）,芝士地瓜"
409,肆月河豚·新淮扬(中关村店),39.9826759,116.3131496,235.0,江浙菜,11:00,21:30, 
410,禧宴Joyous Restaurant(禧园店),40.0293528,116.4451368,212.0,粤菜,10:30,21:00, 
411,聚京民福烤鸭店(黄村西大街店),39.7310524,116.3308697,98.0,北京菜,10:00,22:00,"精品烤鸭,乾隆白菜,麻豆腐,招牌酥皮虾,蒜蓉粉丝蒸娃娃菜"
412,洪武·北平人家·烤鸭·新京菜(西关环岛店),40.2241573,116.2220122,87.0,北京菜,10:30,21:30,"老北京卤煮,招牌酥皮虾,爆肚,老北京炙子烤肉,干炸满月小丸子,老城带鱼卷饼"
413,北京饭店诺金·作家酒吧,39.9089804,116.409294,246.0,西餐,10:00,22:00, 
414,温鼎府·海鲜火锅(前门23号院店),39.901046,116.4014834,1027.0,火锅,10:00,22:00, 
415,大董烤鸭店(王府井店),39.9097459,116.4099922,430.0,北京菜,11:00,21:30, 
416,北京新世界酒店·印酒吧,39.8987679,116.4124426,170.0,酒吧/酒馆,18:00,01:00, 
417,北京王府井文华东方酒店·文华扒房,39.9126011,116.4100567,786.0,西餐,11:30,22:00, 
418,力力餐厅(前门店),39.8960947,116.3996952,41.0,川菜,10:00,20:30,"泡菜,宫保鸡丁盖饭,牛肉面,四川凉面"
419,南京大饭店自助餐厅,39.9145,116.408662,123.0,自助餐,11:30,21:00, 
420,清真·牛街老爆肚满(前门店),39.8970738,116.3969395,72.0,清真菜,10:00,21:00,"爆牛百叶,羊散丹,烧饼夹肉,羊杂汤,门丁肉饼,焯白菜"
421,南门涮肉(东单店),39.9074532,116.4217394,128.0,火锅,10:30,22:00, 
422,北京王府井希尔顿酒店·书阁,39.914841,116.413338,158.0,面包甜点,09:00,20:30, 
423,羿庭(孔雀廊),39.9159018,116.4140338,373.0,咖啡店,10:00,23:00, 
424,北京王府半岛酒店·凰庭中餐厅,39.9149482,116.4164042,553.0,粤菜,11:30,22:00,"凰庭宋代点茶,十年花雕三葱爆龙虾,虾籽鲜菌东星斑,黑豚肉蒸南宁膏蟹,浓汤花胶鸡丝羹,松露脆皮鸡,陈皮汁酥皮牛小排,酥炸蘸汁鲜蚝,瑶柱蟹肉炒桂花,Dim-Sum Trio 点心精选"
425,海底捞火锅(王府井银泰in88店),39.9165786,116.4116492,120.0,火锅,10:00,07:00, 
426,MORTON'S 莫尔顿牛排坊(北京丽晶酒店),39.9160826,116.4188149,1197.0,西餐,11:30,21:30,"餐前面包,肉眼牛排,带骨小牛排,上等T骨牛排,珍宝蟹饼,带骨肉眼,精选拼盘,莫尔顿招牌沙拉,“和牛”西冷,纽约西冷牛排"
427,德缘烤鸭店(大栅栏店),39.8948822,116.3921679,91.0,北京菜,09:30,21:00, 
428,利苑酒家(金宝店),39.9161445,116.4199031,422.0,粤菜,11:30,21:30,"老火靓汤,杨枝甘露组合,冰烧三层肉,鲍汁凤爪,原汁鲜虾饺,流沙奶黄包"
429,北京国际饭店·霄云厅,39.9097481,116.4283209,194.0,自助餐,06:30,14:00, 
430,竹外桃花·江南小食(中粮广场购物中心店),39.9074813,116.4301056,56.0,小吃,11:00,20:30,"鲜肉小笼,葱油拌面,四喜烤麸,酸汤肥牛面,老鸭汤粉丝,鲜肉生煎包"
431,北京璞瑄酒店·大堂吧,39.923446,116.4099435,280.0,咖啡店,08:00,22:00, 
432,和记炒肝卤煮(万明路店),39.8868586,116.3900898,32.0,小吃,04:30,21:00,"卤煮火烧,炒肝,鲜肉馄饨,糖油饼,小米粥"
433,SUSU·苏苏(隆福寺店),39.9273296,116.4137162,159.0,东南亚菜,11:30,21:00,"十号香鸡,佛手瓜鲜虾沙拉,经典猪肉虾仁春卷,姜公吕望烤鱼,咖喱豆腐,越南火车头"
434,请晋·乔家大院(建外大街店),39.9056046,116.4434932,101.0,创意菜,11:00,21:00, 
435,付小姐在成都(南锣鼓巷店),39.933259,116.4024312,89.0,小吃,11:00,23:30, 
436,日昌餐馆(地安门店),39.9332584,116.3941125,82.0,粤菜,10:00,21:30,"避风塘九肚鱼,烧鹅,锡纸包鸡翅,干炒牛河"
437,北京民族饭店·饽Café,39.907611,116.366925,160.0,自助餐,06:30,19:00, 
438,院落(地安门店),39.9333871,116.3844131,102.0,北京菜,11:00,21:00, 
439,文宇奶酪店(南锣鼓巷店),39.9386188,116.4031142,22.0,面包甜点,09:30,22:30,"红豆燕麦双皮奶,原味奶酪,干果奶酪,芒果酸奶,杏仁豆腐"
440,马凯餐厅(地安门店),39.938644,116.395778,124.0,湘菜,10:30,20:00,"果香麻酱糖饼,东安子鸡,双味鳜鱼,响油鳝鱼糊,软炸里脊,八宝鸡丁"
441,金阁Qi,39.915211,116.36319,525.0,粤菜,11:30,21:30, 
442,菊儿人家(南锣鼓巷店),39.9400365,116.4040046,49.0,其他中餐,11:00,21:30,"菊香奶,老张麻辣鸭,菊儿人家肉骨茶,菊儿人家卤肉饭,韩大姐炸酱面,老北京炒红果"
443,马记烧饼(输入胡同店),39.8863089,116.365533,25.0,小吃,07:00,19:00,"自制螺丝转,糖火烧,芝麻烧饼,自制开口笑,炸咯吱,糖蒜"
444,姚记炒肝店(鼓楼店),39.9408837,116.3967527,33.0,小吃,06:00,22:30,"炒肝,卤煮火烧,麻豆腐,猪肉大葱包子,自制杏仁豆腐,焦圈"
445,伊豆野菜村(金融街购物中心店),39.9161215,116.3608279,196.0,日本料理,11:00,21:00, 
446,宫廷香酥牛肉饼牛街美食,39.8867396,116.3638995,14.0,小吃,07:00,21:00,"羊肉烤包子,糖耳朵,牛肉大葱包子,炸糕,招牌牛肉饼,烤花卷"
447,THE WOODS RESTAURANT(金融街购物中心店),39.9161689,116.3604861,300.0,西餐,11:00,21:00, 
448,清真·伊宝荷叶甑糕(牛街店),39.8868499,116.3632981,35.0,面包甜点,07:00,19:00,"荷叶甑糕,无糖芸豆糕,驴打滚,大米糕,栗子糕,紫米八宝饭"
449,新荣记(建国门外大街店),39.90753,116.4591456,980.0,江浙菜,11:30,21:00, 
450,北京国贸大酒店·酒廊 The Lounge,39.912616,116.45864,368.0,西餐,10:30,01:00, 
451,北京嘉里大酒店·嘉品餐厅,39.9141203,116.4581992,304.0,自助餐,06:30,21:30, 
452,新荣记(金融街店),39.9190403,116.3582633,720.0,江浙菜,11:30,21:00,"红烧辣螺肉,蜜汁红薯,笋干仔排,脆皮乳鸽,黄金脆带鱼,黄鱼花胶羹,农家盐卤豆腐煲,沙蒜烧豆面,杨枝甘露"
453,北京中国大饭店·咖啡苑自助餐厅,39.9104647,116.4598098,353.0,自助餐,11:30,21:00, 
454,麻六记(国贸商城店),39.9124132,116.4608578,144.0,川菜,11:00,21:00, 
455,东直门涮肉.新派京涮,39.940358,116.4386908,194.0,火锅,11:00,22:00,"手切羊上脑,澳洲m9牛肉,鲜毛肚,羊肉串,手做炸响铃,麻酱烧饼"
456,京艷·翰林书院,39.9475104,116.4122049,1246.0,北京菜,11:30,22:00,"传统枣木烤鸭,黄焖花胶海虎翅,卤味九转大肠,炝锅面,红油走地鸡,南非鲍鱼"
457,北京瑰丽酒店·魅酒吧 MEI,39.9205418,116.4606008,351.0,酒吧/酒馆,19:00,02:00, 
458,湊湊火锅·小酒馆(三里屯店),39.93142,116.45501,166.0,火锅,11:00,24:00,"大红袍珍珠奶茶,锅底鸭血豆腐,台式麻辣锅,海鲜棒棒糖,湊湊肥牛,番茄牛膝骨锅,上脑牛肉,雪花牛肉粒"
459,北平盛世烤鸭店(劲松店),39.886167,116.464274,105.0,北京菜,10:30,22:00, 
460,北京远通维景国际大酒店·泰悦一品,39.9313692,116.3567988,509.0,粤菜,11:00,21:00, 
461,西贡妈妈Saigon Mama(三里屯店),39.9351785,116.4548457,102.0,东南亚菜,10:00,22:00,"越南春卷,特色鲜虾卷,牛油果奶昔,火车头米粉4"
462,天福号(西直门店),39.9404277,116.3658484,55.0,小吃,08:00,20:00,"酱肘子,松仁小肚,米粉肉"
463,大董(木樨园桥店),39.855417,116.397761,442.0,北京菜,11:00,22:00, 
464,叶叶菩提(总店),39.9132342,116.4757516,698.0,素食,09:30,21:30, 
465,老回回小吃(百万庄店),39.9284608,116.3410873,35.0,小吃,06:00,21:30,"糖花卷,豆馅烧饼,驴打滚,牛肉包子,豌豆黄,艾窝窝"
466,北京宝格丽酒店·THE BVLGARI BAR,39.9476,116.457248,479.0,酒吧/酒馆,10:00,24:00, 
467,106餐厅(山水文园店),39.8681928,116.4673065,129.0,鲁菜,11:00,21:00, 
468,京味斋·北京牡丹烤鸭(新源街店),39.9519525,116.4540558,125.0,北京菜,10:30,21:30, 
469,北京昆仑饭店·天之锦餐厅,39.948472,116.460125,705.0,西餐,11:30,22:00, 
