id,name,type,lat,lon,opentime,endtime,price,recommendmintime,recommendmaxtime,star
0,北京环球度假区,{游乐园/体育娱乐;沉浸式体验;网红打卡点;亲子友好},39.86099,116.68782,9:00,21:00,503,2,3,4.9
1,故宫博物院,{历史古迹;网红打卡点;城市地标},39.924091,116.403414,8:30,17:00,0,0.5,1,4.9
2,八达岭长城,{历史古迹;城市地标;网红打卡点},40.362639,116.024067,6:30,16:30,40,1,2.5,4.9
3,中国国家博物馆,{博物馆/纪念馆;城市地标},39.911449,116.408018,9:00,17:00,0,3,3.5,4.9
4,颐和园,{文化旅游区;城市地标},40.008817,116.280234,6:00,20:00,30,0.5,1,4.9
5,恭王府,{历史古迹},39.943381,116.392599,8:30,17:00,40,1,2,4.8
6,天坛,{历史古迹;城市地标},39.889918,116.419289,6:00,22:00,34,2.5,4,4.9
7,圆明园,{历史古迹},40.016191,116.309736,7:00,19:00,0,0.5,2,4.9
8,慕田峪长城,{历史古迹},40.440146,116.575896,7:30,18:00,45,0.5,1.5,4.8
9,北京动物园,{公园;亲子友好},39.947726,116.342331,7:30,19:00,15,1,2,4.8
10,北京野生动物园,{游乐园/体育娱乐;亲子友好},39.502139,116.340954,8:30,17:30,145,1,2.5,4.8
11,中国科学技术馆,{博物馆/纪念馆;沉浸式体验;亲子友好},40.012333,116.404938,9:30,17:00,0,2,2.5,4.8
12,奥林匹克公园,{游乐园/体育娱乐;城市地标},39.999245,116.399206,6:30,22:00,0,2.5,4,4.9
13,天安门广场,{人文景观;城市地标},39.910095,116.404091,0:00,22:00,0,0.5,1,4.9
14,雍和宫,{文化旅游区},39.953314,116.423776,9:00,17:00,0,1,2.5,4.9
15,鸟巢(国家体育场),{游乐园/体育娱乐;城市地标;网红打卡点},39.999285,116.402845,10:00,22:00,96,2.5,4,4.9
16,明十三陵,{历史古迹;非遗体验},40.263544,116.231846,8:30,18:00,30,1.5,3,4.7
17,什刹海,{人文景观;夜经济热点;美食目的地},39.948373,116.391243,0:00,24:00,0,1.5,3,4.9
18,国家自然博物馆,{博物馆/纪念馆;亲子友好},39.889596,116.406249,0:00,24:00,0,1,2.5,4.7
19,景山公园,{公园;城市地标;网红打卡点},39.932136,116.402966,6:00,21:00,0,2,3,4.8
20,中国人民革命军事博物馆,{博物馆/纪念馆;城市地标},39.914968,116.33021,9:00,17:00,0,2,2.5,4.2
21,中国地质博物馆,{博物馆/纪念馆;小众秘境},39.929388,116.378741,9:00,16:30,15,1.5,3,4.8
22,古北水镇,{文化旅游区;夜经济热点},40.661046,117.284632,9:00,22:30,140,2,2.5,4.7
23,北京欢乐谷,{游乐园/体育娱乐;沉浸式体验;夜经济热点;亲子友好},39.873868,116.501309,9:30,22:00,299,1,2.5,4.8
24,北京海洋馆,{游乐园/体育娱乐;亲子友好;沉浸式体验},39.950257,116.347445,9:00,17:30,0,0.5,1,4.6
25,北京天文馆,{博物馆/纪念馆;亲子友好;沉浸式体验},39.943008,116.34338,9:00,16:30,0,0.5,1,4.7
26,国家大剧院,{人文景观;城市地标;网红打卡点},39.91123,116.396261,9:00,17:00,27,1,2,4.9
27,香山公园,{公园;节庆限定},39.995693,116.194051,6:00,19:30,10,3,4,4.8
28,北海公园,{公园},39.934167,116.395006,6:00,21:00,0,2.5,4,4.9
29,南锣鼓巷,{商业街区;网红打卡点;夜经济热点},39.943166,116.4095,0:00,24:00,0,1,2.5,4.8
30,居庸关长城,{历史古迹;小众秘境},40.297394,116.078214,6:30,18:00,40,1,2,4.8
31,朝阳公园,{公园;亲子友好;夜经济热点},39.950002,116.489114,6:00,22:00,0,2.5,4,4.9
32,泡泡玛特城市乐园,{游乐园/体育娱乐;沉浸式体验;网红打卡点},39.948516,116.481208,10:00,20:00,148,0.5,1,4.7
33,水立方(国家游泳中心),{游乐园/体育娱乐;城市地标;网红打卡点},39.999266,116.396829,10:30,22:30,29,2,3,4.7
34,北京大观园,{人文景观},39.877081,116.362822,7:30,18:00,40,3,4,4.7
35,北京汽车博物馆,{博物馆/纪念馆;亲子友好;沉浸式体验},39.835043,116.308108,9:00,17:00,30,1,1.5,4.7
36,世界公园,{游乐园/体育娱乐;城市地标;网红打卡点},39.81671,116.293772,9:00,17:00,95,1,2.5,4.4
37,前门大街,{商业街区;美食目的地;夜经济热点},39.899651,116.40452,0:00,24:00,0,2.5,4,4.8
38,王府井,{商业街区;美食目的地;夜经济热点},39.91979,116.418038,0:00,24:00,0,3,3.5,4.9
39,天安门城楼,{历史古迹;城市地标},39.915407,116.403865,8:30,15:30,0,1,1.5,4.8
40,老舍茶馆,{人文景观},39.906052,116.399659,10:00,22:00,180,3,4,4.7
41,北京杜莎夫人蜡像馆,{博物馆/纪念馆;网红打卡点;沉浸式体验},39.903663,116.404671,10:00,21:00,129,2,3.5,3.7
42,孔庙和国子监博物馆,{博物馆/纪念馆;非遗体验},39.953111,116.420343,9:00,17:00,0,1,1.5,3.9
43,八达岭野生动物世界,{游乐园/体育娱乐;亲子友好},40.359586,116.001343,8:00,17:00,85,1,2.5,4.2
44,故宫珍宝馆,{博物馆/纪念馆},39.925979,116.406346,8:30,17:00,0,2,3,4.7
45,太和殿,{历史古迹;城市地标},39.923657,116.403432,8:30,17:00,0,2,3.5,4.8
46,毛主席纪念堂,{博物馆/纪念馆;城市地标},39.908876,116.404145,8:00,12:00,0,2.5,4,3.8
47,午门,{历史古迹;城市地标},39.920105,116.403705,8:30,17:00,0,1.5,2,3.8
48,太平洋海底世界,{游乐园/体育娱乐;亲子友好;沉浸式体验},39.924905,116.312596,8:30,17:30,90,0.5,1,4.4
49,798艺术区,{美术馆/艺术馆;网红打卡点;城市地标},39.991061,116.501104,0:00,24:00,0,2.5,4,4.8
50,清华大学艺术博物馆,{美术馆/艺术馆;小众秘境},40.007638,116.342234,9:00,17:00,0,0.5,1,4.4
51,中央广播电视塔,{人文景观;城市地标;网红打卡点},39.925494,116.313595,8:30,18:00,90,2,2.5,4.8
52,德云社剧场,{人文景观;夜经济热点},39.890323,116.404395,19:15,22:00,698,1.5,3,4.7
53,慕田峪长城索道滑道,{游乐园/体育娱乐;沉浸式体验;小众秘境},40.437922,116.570303,8:00,17:00,0,1.5,2,3.8
54,雁栖湖,{公园;节庆限定},40.403587,116.690837,8:30,17:30,42,3,4,4.6
55,北京宋庆龄故居,{红色景点},39.951737,116.389564,9:00,17:00,20,3,3.5,4.5
56,水立方嬉水乐园,{游乐园/体育娱乐;亲子友好;沉浸式体验},39.998775,116.39662,10:00,18:00,136.99,1.5,3,4.6
57,潭柘寺,{历史古迹;小众秘境},39.91122,116.03762,8:30,16:30,50,1,2,4.9
58,黄花城水长城,{历史古迹;小众秘境},40.419287,116.307167,8:30,17:00,58,3,3.5,4.7
59,大栅栏,{商业街区;美食目的地;夜经济热点},39.901535,116.397634,0:00,24:00,0,0.5,1,4.9
60,钟鼓楼,{历史古迹;城市地标;网红打卡点},39.948732,116.40236,9:30,17:30,10,1,2,4.8
61,鼓楼,{历史古迹;城市地标;网红打卡点},39.946841,116.40237,9:30,17:30,0,0.5,2,4.8
62,北京奥林匹克塔,{游乐园/体育娱乐;城市地标;网红打卡点},40.014691,116.40065,9:00,22:00,118,2.5,3,4.8
63,红螺寺,{文化旅游区;节庆限定},40.389488,116.634124,0:00,24:00,54,0.5,1.5,4.9
64,八大处公园,{公园;小众秘境},39.968352,116.189212,6:00,18:00,10,2.5,3,4.8
65,国子监,{历史古迹},39.953116,116.419591,9:00,17:00,0,0.5,1,4.8
66,中华民族博物院,{博物馆/纪念馆;节庆限定},39.989186,116.397793,8:30,18:00,45,2,3,4.6
67,三里屯,{商业街区;夜经济热点;网红打卡点},39.940602,116.458347,9:00,23:00,0,1,1.5,4.9
68,大熊猫馆,{游乐园/体育娱乐;亲子友好},39.945481,116.34581,8:00,18:00,0,1,2,4.5
69,富国海底世界,{游乐园/体育娱乐;亲子友好;沉浸式体验},39.933996,116.453669,9:00,17:30,91,1,1.5,4.2
70,龙庆峡,{自然风光;小众秘境},40.557851,116.009343,8:30,17:00,40,1,2.5,4.6
71,定陵,{历史古迹;小众秘境},40.30048,116.232421,8:30,18:00,60,1.5,2,4.6
72,北京乐高探索中心,{游乐园/体育娱乐;亲子友好;沉浸式体验},39.930684,116.602649,10:30,18:30,180,1,1.5,4.8
73,司马台长城,{历史古迹;小众秘境},40.663649,117.292856,9:00,16:10,40,1.5,2,4.8
74,石景山游乐园,{游乐园/体育娱乐;亲子友好;沉浸式体验},39.91784,116.215231,9:00,17:30,10,2,3,4.7
75,首都博物馆,{博物馆/纪念馆;城市地标},39.912283,116.349192,9:00,17:00,0,1.5,2,4.8
76,北京刘老根大舞台,{游乐园/体育娱乐;夜经济热点},39.899788,116.406961,20:00,22:15,580,0.5,1.5,4.6
77,祈年殿,{历史古迹;城市地标},39.889922,116.419288,8:00,18:00,0,2,3.5,4.8
78,后海,{公园;夜经济热点;美食目的地},39.948183,116.394776,0:00,24:00,0,2.5,3,4.9
79,纪晓岚故居,{历史古迹;小众秘境},39.896319,116.393561,9:00,18:00,10,2,3,4.7
80,观复博物馆,{博物馆/纪念馆;小众秘境},40.013243,116.540404,9:00,16:00,88,2,3,4.8
81,国家图书馆,{博物馆/纪念馆;城市地标},39.949689,116.329894,9:00,21:00,0,1,2,4.9
82,中国美术馆,{美术馆/艺术馆;城市地标},39.931462,116.415454,9:00,17:00,0,2,2.5,4.9
83,地坛,{历史古迹;节庆限定},39.959692,116.419984,6:00,21:30,0,1,2,4.8
84,中国紫檀博物馆,{博物馆/纪念馆},39.916834,116.532527,9:00,17:00,50,2.5,4,4.8
85,北京喇叭沟原始森林公园,{自然风光;小众秘境},40.965737,116.495711,7:30,17:30,38,1,2,4.6
86,潘家园旧货市场,{商业街区;小众秘境;夜经济热点},39.881199,116.465329,9:00,21:00,0,3,3.5,4.7
87,人民大会堂,{人文景观;城市地标},39.911394,116.400238,9:00,15:00,0,0.5,1,5
88,北京世园公园,{公园;节庆限定},40.450315,115.957449,9:00,17:00,60,3,4,4.7
89,九谷口自然风景区,{自然风光;小众秘境},40.450379,116.668525,8:30,17:00,0,1.5,2,4.6
90,世界花卉大观园,{公园;节庆限定},39.841376,116.359803,0:00,24:00,50,2,3,4.5
91,悬空玻璃艺术馆,{美术馆/艺术馆;网红打卡点;城市地标},39.922161,116.418481,10:00,20:00,39.9,3,3.5,3.8
92,卢沟桥,{历史古迹;城市地标},39.856421,116.228721,7:30,19:00,20,2,3.5,4.7
93,八达岭古长城(残长城),{历史古迹;小众秘境},40.356556,115.979423,9:00,16:30,54,2,3,4.6
94,中国工美馆 中国非遗馆,{博物馆/纪念馆;非遗体验},40.009944,116.404125,9:00,17:00,0,0.5,1,4.9
95,红砖美术馆,{美术馆/艺术馆;网红打卡点;小众秘境},40.048543,116.506291,10:00,18:00,150,0.5,1,4.6
96,国家速滑馆,{游乐园/体育娱乐;城市地标;网红打卡点},40.023485,116.384188,12:00,18:00,40,1,1.5,4.8
97,回音壁,{历史古迹;城市地标},39.884433,116.41951,8:00,18:00,0,1,2,4.7
98,北京玛雅海滩水公园,{游乐园/体育娱乐;亲子友好;沉浸式体验},39.873927,116.500997,0:00,24:00,0,0.5,2,4.6
99,亮马河国际风情水岸,{公园;夜经济热点;美食目的地},39.955013,116.485426,15:00,18:30,0,1,1.5,4.8
100,温都水城·水梦奇缘,{游乐园/体育娱乐;亲子友好;沉浸式体验},40.110253,116.377085,10:00,18:00,118,3,4,4.5
101,玉渊潭公园,{公园;节庆限定},39.92195,116.329057,6:00,21:30,0,2.5,3,4.8
102,中国电影博物馆,{博物馆/纪念馆;沉浸式体验;小众秘境},40.0028,116.526921,9:00,17:00,0,2.5,4,4.8
103,世贸天阶,{商业街区;夜经济热点;网红打卡点},39.922006,116.458637,10:00,22:00,0,3,4,4.7
104,白云观,{历史古迹},39.906539,116.350119,8:30,16:30,0,2.5,4,4.9
105,故宫钟表馆,{博物馆/纪念馆},39.925225,116.405192,8:30,17:00,0,1,2.5,4.3
106,人民英雄纪念碑,{红色景点;城市地标},39.910966,116.404165,0:00,24:00,0,0.5,2,5
107,大运河博物馆,{博物馆/纪念馆;城市地标},39.887286,116.723345,10:00,20:00,0,0.5,1,4.7
108,北京市档案馆,{博物馆/纪念馆;小众秘境},39.890999,116.477648,9:00,17:00,0,2.5,3,4.8
109,国家植物园(原北京植物园),{公园;亲子友好;节庆限定},40.008872,116.216152,6:00,21:00,0,1,1.5,4.9
110,未来水世界,{游乐园/体育娱乐;亲子友好;沉浸式体验},39.863532,116.692107,9:00,20:00,0,0.5,1,4.8
111,长陵,{历史古迹;小众秘境},40.306283,116.255634,8:30,18:00,45,3,4,4.9
112,中国航空博物馆,{博物馆/纪念馆;小众秘境},40.192095,116.372885,9:00,17:00,0,1,1.5,4.7
113,西单商业街,{商业街区;美食目的地;夜经济热点},39.917372,116.380941,0:00,24:00,0,0.5,1,4.8
114,昆明湖,{公园;城市地标},39.999894,116.278314,6:30,18:00,0,1.5,3,3.7
115,坡峰岭,{自然风光;节庆限定},39.709779,115.84427,8:00,17:00,30,2.5,3,4.6
116,白塔寺,{历史古迹},39.930757,116.369903,9:00,17:00,0,1,2,4.7
117,龙潭中湖公园,{公园;城市地标;夜经济热点},39.882817,116.439721,6:00,22:00,0,1,2.5,4.8
118,水关长城,{历史古迹;小众秘境},40.343181,116.044886,9:00,16:30,35,0.5,2,4.7
119,五道营胡同,{商业街区;美食目的地;夜经济热点},39.954871,116.415418,0:00,24:00,0,2,2.5,4.9
120,陶然亭公园,{公园;城市地标},39.88066,116.388442,6:00,22:00,0,1,2,4.8
121,北京曲水兰亭水疗,{游乐园/体育娱乐;夜经济热点},39.911218,116.51187,0:00,24:00,1208.9,1,2,4.6
122,国家动物博物馆,{博物馆/纪念馆;亲子友好;沉浸式体验},40.011196,116.392992,9:00,17:00,0,2,3.5,4.6
123,东交民巷,{历史古迹;城市地标},39.90893,116.417056,0:00,24:00,0,2,3,4.3
124,凤凰中心,{人文景观;网红打卡点;城市地标},39.940342,116.480337,10:00,17:00,0,1.5,3,4.8
125,北京市劳动人民文化宫,{文化旅游区;城市地标},39.918736,116.406195,6:30,19:00,0,2,3.5,4.8
126,朝阳剧场杂技,{游乐园/体育娱乐;沉浸式体验;夜经济热点},39.928194,116.468861,16:00,20:00,0,0.5,2,4.7
127,奥林匹克森林公园,{公园;亲子友好;节庆限定},40.025231,116.3968,6:00,21:00,0,0.5,1.5,4.8
128,周口店北京人遗址博物馆,{博物馆/纪念馆},39.693589,115.943241,9:00,16:30,30,0.5,1,4.5
129,北京平谷金海湖,{自然风光;节庆限定},40.187348,117.310896,8:30,17:30,38,3,4,4.4
130,十七孔桥,{历史古迹;城市地标},39.997,116.283926,6:30,18:00,0,1,1.5,4.8
131,国家典籍博物馆,{博物馆/纪念馆;城市地标},39.948853,116.330581,9:00,17:00,0,2.5,3,4.8
132,城市大道,{商业街区;美食目的地;夜经济热点},39.855987,116.683649,8:00,23:00,0,0.5,2,4.9
133,玉渡山景区,{自然风光;小众秘境},40.55826,115.895804,8:30,15:30,60,1,2,4.6
134,北京西山国家森林公园,{公园;小众秘境},39.982469,116.201277,8:00,18:00,10,2.5,3,4.8
135,烟袋斜街,{商业街区;美食目的地;夜经济热点},39.945443,116.400974,0:00,24:00,0,2,2.5,4.7
136,中山公园,{公园;城市地标},39.916729,116.400516,6:00,21:00,0,3,4,4.9
137,护国寺,{历史古迹;非遗体验},39.941127,116.381757,0:00,24:00,0,2,2.5,4.3
138,乐多港·卡乐星球,{游乐园/体育娱乐;沉浸式体验;亲子友好},40.241035,116.196994,9:30,18:00,179,0.5,1,4.2
139,北京金海湖碧波岛度假区,{游乐园/体育娱乐;亲子友好;节庆限定},40.173688,117.336098,9:00,17:00,158,1.5,3,4.4
140,紫御湾码头,{人文景观;夜经济热点},39.950809,116.323237,9:00,16:00,0,2,3.5,4.8
141,SOLANA蓝色港湾,{商业街区;夜经济热点;美食目的地},39.955084,116.482406,0:00,24:00,0,0.5,2,4.8
142,老北京胡同游,{人文景观;非遗体验;城市地标},39.940188,116.396212,7:00,16:00,0,1,2,4.5
143,野鸭湖国家湿地公园,{公园;小众秘境},40.414865,115.864833,9:00,17:00,50,0.5,2,4.5
144,箭扣长城,{历史古迹;小众秘境},40.449159,116.541112,0:00,24:00,0,0.5,1,4.7
145,银河SOHO,{商业街区;网红打卡点;城市地标},39.92661,116.439685,0:00,24:00,0,2,3.5,4.8
146,梵高星空艺术馆（王府井旗舰店）,{美术馆/艺术馆;网红打卡点;沉浸式体验},39.916613,116.418247,10:00,21:00,39.9,1,1.5,4.5
147,角楼,{历史古迹;城市地标},39.928846,116.407488,8:30,17:00,0,3,4,4.3
148,和平菓局,{商业街区;美食目的地;夜经济热点},39.920345,116.416782,10:00,22:00,0,2,3,4.8
149,十渡风景名胜区,{自然风光;小众秘境},39.644148,115.606473,8:00,17:00,0,2,3,4.7
150,北京国际鲜花港,{公园;节庆限定},40.187688,116.803564,9:00,17:00,30,1,2,4.4
151,黑龙潭风景区,{自然风光;小众秘境},40.569355,116.793737,9:00,17:00,58,1.5,3,4.6
152,北京艺术博物馆,{博物馆/纪念馆;非遗体验},39.952595,116.317868,9:00,17:00,20,1.5,3,4.8
153,长安街,{商业街区;城市地标;夜经济热点},39.914246,116.415894,0:00,24:00,0,1.5,2,4.9
154,长城之漫观景台,{人文景观;网红打卡点;城市地标},40.36194,116.01666,6:00,22:30,0,3,4,3.9
155,北京民俗博物馆,{博物馆/纪念馆},39.929847,116.450503,8:30,16:30,10,1.5,2,4.6
156,北京鲁迅博物馆(北京新文化运动纪念馆),{博物馆/纪念馆;小众秘境},39.931264,116.36503,9:00,16:00,0,0.5,2,4.7
157,佛香阁,{人文景观;城市地标},40.005295,116.280371,9:00,16:00,0,2,2.5,3.7
158,北京坊,{商业街区;美食目的地;夜经济热点},39.904283,116.402433,10:00,22:00,0,2,3,4.7
159,北京颐和园石舫,{人文景观;城市地标},40.004311,116.276081,6:30,18:00,0,1,2.5,4.8
160,圜丘,{历史古迹;城市地标},39.883274,116.419657,8:00,17:30,0,3,4,4.7
161,保和殿,{历史古迹;城市地标},39.924779,116.403357,8:30,17:00,0,2.5,4,4.8
162,北京梨园剧场,{人文景观;非遗体验;夜经济热点},39.892911,116.392263,0:00,24:00,88,1.5,2,4.4
163,北京古代建筑博物馆,{博物馆/纪念馆;非遗体验},39.883595,116.398506,9:00,17:00,0,1,2.5,4.9
164,钟楼,{历史古迹;城市地标},39.948395,116.402205,9:30,17:30,10,2,3,4.8
165,紫竹院公园,{公园;亲子友好;节庆限定},39.948517,116.326003,6:00,21:30,0,1.5,2,4.9
166,白瀑寺,{历史古迹;小众秘境},40.124144,115.927283,8:00,17:00,0,1.5,3,4.9
167,历代帝王庙,{历史古迹},39.930766,116.373959,0:00,24:00,0,1,1.5,4.7
168,银山塔林,{历史古迹;小众秘境},40.320994,116.335118,8:00,16:00,20,0.5,1.5,4.7
169,中粮祥云小镇,{商业街区;夜经济热点;城市地标},40.095847,116.543123,10:00,21:00,0,2.5,4,4.8
170,太庙街门,{历史古迹;城市地标},39.916065,116.404527,9:00,17:00,0,0.5,1,4.2
171,中和殿,{历史古迹;城市地标},39.924221,116.403387,8:30,17:00,0,1,2.5,5
172,神路景区,{历史古迹;小众秘境},40.260807,116.23018,8:30,18:00,30,2.5,3,4.3
173,南宫旅游度假区,{游乐园/体育娱乐;亲子友好;沉浸式体验},39.81265,116.161143,9:00,21:00,0,1,1.5,4.6
174,戒台寺,{历史古迹;小众秘境},39.87673,116.092996,8:30,16:45,45,3,4,4.8
175,御花园,{公园;城市地标},39.927608,116.403161,8:30,15:30,0,1.5,2,3.8
176,国家植物园南园,{公园;亲子友好;节庆限定},39.996967,116.217629,8:00,18:00,0,1.5,3,4.9
177,通州运河公园,{公园;夜经济热点;城市地标},39.8824,116.748887,0:00,21:00,0,1,1.5,4.7
178,通州运河游船,{游乐园/体育娱乐;夜经济热点;沉浸式体验},39.913558,116.693871,9:30,10:30,0,1,2.5,4.3
179,中国海关博物馆,{博物馆/纪念馆;小众秘境},39.913052,116.43929,9:00,16:30,0,2,3,4.8
180,石林峡,{自然风光;小众秘境},40.268794,117.24851,8:30,17:00,68,2,3,4.6
181,北京温榆河公园,{公园;亲子友好;节庆限定},40.081409,116.471027,6:00,21:00,0,0.5,1,4.7
182,明城墙遗址公园,{公园;城市地标},39.907202,116.434388,8:30,19:30,0,1.5,2,4.7
183,北京(通州)大运河文化旅游景区,{文化旅游区;城市地标;节庆限定},39.920126,116.67408,9:00,17:00,0,0.5,2,4.8
184,清凉谷风景区,{自然风光;小众秘境},40.639741,116.760481,8:00,17:30,48.9,2.5,4,4.5
185,周口店北京人遗址公园,{历史古迹;小众秘境},39.696128,115.937405,9:00,16:30,30,2,3,4.5
186,北京展览馆,{博物馆/纪念馆;城市地标},39.946119,116.350668,8:30,18:00,0,0.5,1,4.8
187,呀路古热带植物园,{游乐园/体育娱乐;亲子友好;沉浸式体验},39.664878,116.60049,8:30,17:30,60,1.5,2,4.4
188,北京城市图书馆,{博物馆/纪念馆;城市地标},39.889043,116.721152,10:00,20:00,0,1,2,4.7
189,南宫五洲植物乐园,{游乐园/体育娱乐;亲子友好;沉浸式体验},39.799936,116.160942,9:30,17:30,68,1,2.5,4.6
190,三里屯酒吧一条街,{商业街区;夜经济热点;美食目的地},39.939886,116.462197,9:00,23:00,0,0.5,2,4.8
191,龙潭公园,{公园;城市地标;夜经济热点},39.884624,116.446425,6:00,22:00,0,1.5,3,4.8
192,霸天虎过山车,{游乐园/体育娱乐;沉浸式体验;网红打卡点},39.863491,116.686724,10:00,19:00,0,1,2.5,4.8
193,751活的3D博物馆,{游乐园/体育娱乐;沉浸式体验;网红打卡点},39.99011,116.507681,10:30,18:30,64.8,2.5,3,4
194,望京SOHO,{商业街区;网红打卡点;城市地标},40.002211,116.487288,0:00,24:00,0,0.5,2,4.8
195,梨树沟休闲谷,{游乐园/体育娱乐;亲子友好;节庆限定},40.295044,117.257046,9:00,17:00,0,1.5,3,4.5
196,八大胡同,{人文景观;美食目的地;夜经济热点},39.898892,116.398954,0:00,24:00,0,1.5,2,3.8
197,北京大学,{大学校园;城市地标},39.997899,116.316801,6:30,22:30,0,1.5,2,4.9
198,北京孔庙,{历史古迹},39.952772,116.420854,9:00,17:00,0,2,3.5,4.8
199,国家会议中心,{商业街区;城市地标;夜经济热点},40.006295,116.396466,0:00,17:00,0,1.5,3,4.3
200,北京蓝调庄园,{人文景观;亲子友好;节庆限定},39.97179,116.617844,8:30,18:00,0,1,2,4.6
201,首钢工业遗址公园,{公园;网红打卡点;城市地标},39.915904,116.170035,0:00,20:00,0,2,3,4.8
202,京东大溶洞,{自然风光;小众秘境},40.218624,117.260596,8:00,16:45,80,2.5,3,4.4
203,什刹海游船,{人文景观;夜经济热点;沉浸式体验},39.941419,116.399258,9:00,18:00,0,1,1.5,4.5
204,北京王府井天主教堂,{人文景观;城市地标},39.923646,116.418472,8:00,11:00,0,1,2.5,4.7
205,乾清宫,{历史古迹;城市地标},39.926469,116.403275,8:30,17:00,0,2,3.5,5
206,石刻艺术博物馆,{博物馆/纪念馆;小众秘境},39.950594,116.336751,0:00,24:00,0,2,3,4.8
207,华熙Live·五棵松,{商业街区;夜经济热点;城市地标},39.916725,116.283811,10:00,22:00,0,3,4,4.8
208,百里山水画廊,{自然风光;小众秘境},40.666026,116.257788,0:00,24:00,60,3,4,4.7
209,中华世纪坛,{文化旅游区;城市地标},39.917371,116.327863,9:00,17:00,0,0.5,1.5,4.7
210,张裕爱斐堡酒庄,{文化旅游区;节庆限定},40.382065,116.90818,8:00,17:00,78,1,2.5,4.5
211,老舍纪念馆,{博物馆/纪念馆},39.924948,116.414815,9:00,17:00,0,2,2.5,5
212,侏罗纪世界大冒险,{游乐园/体育娱乐;沉浸式体验;网红打卡点},39.862291,116.689723,10:00,19:00,0,1,2,4.8
213,阿派朗创造力乐园,{游乐园/体育娱乐;亲子友好;沉浸式体验},39.876917,116.745985,9:30,18:00,0,1,2,4.6
214,云居寺,{历史古迹;小众秘境},39.615247,115.780384,9:00,16:00,40,2,3,4.8
215,中国钱币博物馆,{博物馆/纪念馆;小众秘境},39.908529,116.401379,9:00,17:00,0,0.5,1.5,4.7
216,南池子美术馆,{美术馆/艺术馆;小众秘境},39.919969,116.409785,10:00,13:00,0,2.5,4,4.7
217,史家胡同,{历史古迹;城市地标},39.924567,116.43074,0:00,24:00,0,1,2,4.9
218,幻境空间超级元宇宙(北京店),{游乐园/体育娱乐;沉浸式体验;网红打卡点},39.905859,116.424056,10:00,22:00,59.8,1,2,4.4
219,北京凤凰岭景区,{自然风光;小众秘境},40.111966,116.091763,7:00,17:00,25,1,1.5,4.8
220,京东大峡谷,{自然风光;小众秘境},40.251256,117.180659,7:30,17:00,75,0.5,2,4.4
221,延禧宫,{历史古迹;城市地标},39.92673,116.405073,8:30,17:00,0,0.5,1,4.8
222,北京动物园游船码头,{游乐园/体育娱乐;亲子友好;沉浸式体验},39.948889,116.346669,10:30,15:30,79,1,2.5,4.5
223,中国铁道博物馆东郊馆,{博物馆/纪念馆;小众秘境},40.004012,116.522737,9:00,16:00,0,0.5,1,4.7
224,中国铁道博物馆正阳门馆,{博物馆/纪念馆;城市地标},39.90611,116.406489,9:00,17:00,0,2.5,4,4.8
225,天主教北京教区西什库教堂,{历史古迹;城市地标},39.931328,116.385221,8:00,11:00,0,1,1.5,4.8
226,北京警察博物馆,{博物馆/纪念馆;小众秘境},39.908366,116.411541,9:00,16:00,0,2,3,4.7
227,北顶娘娘庙,{历史古迹},39.99648,116.396595,8:30,16:30,0,1.5,3,4.9
228,神武门,{历史古迹;城市地标},39.92869,116.40324,0:00,24:00,0,1.5,2,4.3
229,青龙湖公园,{公园;亲子友好;节庆限定},39.802592,116.094874,9:00,17:30,39.9,2,2.5,4.1
230,中国古动物馆,{博物馆/纪念馆;亲子友好;沉浸式体验},39.943187,116.340639,9:00,16:30,0,3,3.5,4.7
231,北京启迪乔波冰雪世界,{游乐园/体育娱乐;亲子友好;沉浸式体验},40.206053,116.667894,10:00,21:00,138,2,2.5,4.5
232,嘉德艺术中心,{美术馆/艺术馆;小众秘境},39.930097,116.416887,10:00,18:00,0,2,3,4.8
233,天宁寺城,{历史古迹;小众秘境},39.900389,116.352581,0:00,16:00,0,1.5,3,4.7
234,曼联梦剧场,{人文景观;网红打卡点;城市地标},39.903746,116.401072,10:00,22:00,0,2,3,4.5
235,中国人民抗日战争纪念馆,{博物馆/纪念馆;城市地标},39.857778,116.232491,9:00,16:30,0,0.5,1.5,5
236,北京国际会议中心,{其它;城市地标;夜经济热点},39.995704,116.408757,8:30,17:30,0,3,3.5,4.8
237,京杭大运河,{人文景观;城市地标},39.911309,116.695847,0:00,24:00,0,2.5,3,4
238,坤宁宫,{历史古迹;城市地标},39.927103,116.403248,8:30,17:00,0,2.5,4,4.8
239,索道,{游乐园/体育娱乐;沉浸式体验;网红打卡点},40.363162,116.022042,6:30,16:30,0,1.5,3,4.8
240,杨梅竹斜街,{商业街区;美食目的地;夜经济热点},39.902577,116.400637,0:00,24:00,0,1,2,4
241,勅建弘慈广济寺,{历史古迹},39.930786,116.378703,7:00,16:30,0,1,2,4.8
242,北京工艺美术博物馆(北投新奥购物中心店),{博物馆/纪念馆;小众秘境},40.00572,116.400322,10:00,17:00,0,0.5,1,4.7
243,冶仙塔旅游风景区,{文化旅游区;小众秘境},40.407722,116.873395,8:30,17:30,47.9,2.5,4,4.6
244,苏州街,{商业街区;美食目的地;夜经济热点},39.991011,116.312016,0:00,24:00,0,1.5,3,4.8
245,颐和园冰雪嘉年华,{游乐园/体育娱乐;节庆限定;亲子友好},39.99334,116.270413,0:00,24:00,0,0.5,2,3.9
246,罗红摄影艺术馆,{美术馆/艺术馆;网红打卡点;美食目的地},40.048705,116.58091,9:00,21:00,0,2.5,3,4.9
247,五塔寺塔,{历史古迹;小众秘境},39.950627,116.336963,9:00,17:00,0,1,2,4.4
248,北京延庆奥林匹克园区,{游乐园/体育娱乐;城市地标;节庆限定},40.528801,115.797049,9:00,17:00,0,1.5,2,4.7
249,万寿寺,{历史古迹},39.953365,116.3186,9:00,17:00,0,2,2.5,4.7
250,皇穹宇,{历史古迹;城市地标},39.884764,116.419545,8:00,16:30,0,2,3.5,4.7
251,云蒙山风景区,{自然风光;小众秘境},40.552925,116.824994,9:00,17:00,78,2.5,4,4.4
252,颐和园博物馆,{博物馆/纪念馆},40.003191,116.28714,8:00,18:00,0,2.5,3,4.8
253,中国儿童中心-儿童探索馆,{游乐园/体育娱乐;亲子友好;沉浸式体验},39.939742,116.368001,9:00,11:30,0,0.5,1,4.8
254,史家胡同博物馆,{博物馆/纪念馆},39.924292,116.428906,9:30,16:30,0,0.5,1.5,4.7
255,古崖居风景区,{人文景观;小众秘境},40.468621,115.78223,9:00,16:30,54,3,3.5,4.8
256,北京雁栖湖西山步道,{公园;城市地标;节庆限定},40.389306,116.653154,8:00,17:00,0,0.5,2,4.8
257,百里山水画廊—滴水壶,{自然风光;小众秘境},40.689476,116.471173,9:00,17:00,25,2,3,4.5
258,铛铛车游北京中轴线,{文化旅游区;城市地标;节庆限定},39.904787,116.403994,9:00,20:20,0,0.5,1,4.9
259,三庆园,{人文景观;夜经济热点},39.902184,116.403236,19:30,22:00,0,0.5,1,4.6
260,西洋楼遗址景区,{历史古迹;城市地标},40.019733,116.319112,7:00,20:00,0,0.5,1,4.8
261,月坛公园,{公园;城市地标},39.922319,116.358846,6:00,21:00,0,1,2,4.7
262,乐谷银滩景区,{自然风光;小众秘境},39.623508,115.674467,8:30,17:00,29,3,4,4.7
263,北京市通州区博物馆,{博物馆/纪念馆;小众秘境},39.91411,116.673882,9:00,17:00,0,3,3.5,4.5
264,大水法,{历史古迹;城市地标},40.019363,116.319222,0:00,24:00,0,0.5,1,4.8
265,北京科学中心,{博物馆/纪念馆;亲子友好;沉浸式体验},39.976432,116.399187,0:00,24:00,0,1,2,4.8
266,中国园林博物馆,{博物馆/纪念馆;城市地标;非遗体验},39.885345,116.183848,0:00,24:00,0,3,4,4.8
267,北京二锅头酒博物馆,{博物馆/纪念馆},40.332082,116.671525,8:30,16:00,48,3,3.5,4.7
268,日坛公园,{公园;城市地标},39.921337,116.45044,6:00,21:30,0,2,3.5,4.7
269,今日美术馆,{美术馆/艺术馆;小众秘境},39.905621,116.474333,10:00,18:00,0,1,2,4.8
270,北京后花园（白虎涧）风景区,{自然风光;小众秘境},40.133592,116.105074,7:00,17:30,60,0.5,1,4.1
271,疯狂的麦咭,{游乐园/体育娱乐;沉浸式体验;亲子友好},39.805882,116.522533,13:00,22:00,0,3,4,4.6
272,中国民航博物馆,{博物馆/纪念馆;小众秘境},40.024077,116.54451,9:00,16:30,0,0.5,1,4.7
273,首钢一高炉·SoReal科幻乐园,{游乐园/体育娱乐;沉浸式体验;网红打卡点},39.926632,116.163968,0:00,24:00,139,1,2,4.8
274,中信证券大厦,{商业街区;城市地标},39.956053,116.474504,0:00,24:00,0,0.5,1,4
275,清华大学,{大学校园;城市地标},40.005106,116.342192,6:30,19:00,0,0.5,1,5
276,神乐署,{历史古迹;城市地标},39.885159,116.411096,6:00,22:00,0,2,3,4.1
277,中国共产党历史展览馆,{博物馆/纪念馆;城市地标},40.01018,116.405844,9:00,17:00,0,1,1.5,5
278,北京工人体育场,{游乐园/体育娱乐;城市地标;夜经济热点},39.937016,116.453576,10:00,22:00,0,0.5,2,4.9
279,南海子公园,{公园;亲子友好;节庆限定},39.779483,116.47561,6:00,21:00,0,2,3.5,4.8
280,八达岭国家森林公园,{自然风光;小众秘境},40.350587,116.035858,9:00,16:00,33,0.5,2,4.6
281,复兴之路展厅,{博物馆/纪念馆;城市地标},39.911358,116.407945,9:00,17:00,0,2,2.5,4.2
282,盛华屯夜市,{商业街区;美食目的地;夜经济热点},39.883025,116.545695,0:00,24:00,0,2,3,4.4
283,儿童科学乐园(中国科学技术馆店),{游乐园/体育娱乐;亲子友好;沉浸式体验},40.012682,116.404705,9:30,12:50,0,1,2,4.5
284,太和门,{历史古迹;城市地标},39.921716,116.403553,8:30,16:30,0,1,2,4.6
285,老北京风情街,{商业街区;美食目的地;夜经济热点},39.91813,116.415665,0:00,24:00,0,2,2.5,4.5
286,北京火德真君庙,{历史古迹;非遗体验},39.943353,116.401949,9:00,17:00,0,1.5,3,4.8
287,元大都城垣遗址公园,{公园;城市地标;节庆限定},39.98241,116.41595,6:30,22:00,0,3,4,4.7
288,遇见博物馆·北京798馆,{博物馆/纪念馆;小众秘境},39.990209,116.501157,10:00,18:30,0,2,3,4.6
289,仁寿殿,{人文景观;城市地标},40.004104,116.286464,0:00,24:00,0,2,2.5,4.6
290,中国宋庆龄青少年科技文化交流中心,{游乐园/体育娱乐;亲子友好;沉浸式体验},39.917764,116.32223,0:00,24:00,0,0.5,1,4.8
291,十渡拒马乐园,{游乐园/体育娱乐;亲子友好;节庆限定},39.640744,115.601207,8:00,18:00,0,1,2,4.6
292,大觉寺,{历史古迹;小众秘境},40.058632,116.113289,9:00,17:00,0,1,2,3.9
293,中央美术学院美术馆,{美术馆/艺术馆;小众秘境},39.989839,116.471944,9:30,17:00,0,0.5,1,4.8
294,龙门涧风景区,{自然风光;小众秘境},40.028529,115.567102,8:30,16:00,0,1,2,4.5
295,中国木偶剧院,{人文景观;亲子友好;沉浸式体验},39.974486,116.407764,9:30,19:30,0,2.5,4,4.8
296,昭陵,{历史古迹;小众秘境},40.296831,116.224533,8:30,18:00,30,2,3.5,4.6
297,睿恩小镇,{游乐园/体育娱乐;亲子友好;沉浸式体验},40.103957,116.564571,10:00,17:00,0,1,2.5,4.5
298,西黄寺,{历史古迹},39.969642,116.396846,0:00,24:00,0,1,2,4.7
299,法海禅寺,{历史古迹;小众秘境},39.947874,116.165922,9:00,16:30,0,0.5,1,4.7
300,玲珑塔,{历史古迹;城市地标},40.003685,116.400415,11:00,20:00,0,2,3,4.5
301,鬼笑石,{人文景观;网红打卡点;城市地标},39.985291,116.193966,0:00,24:00,0,1,2,4.8
302,慈宁宫,{历史古迹;城市地标},39.925346,116.400888,8:30,17:00,0,2,3.5,4.4
303,中国华侨历史博物馆,{博物馆/纪念馆;小众秘境},39.949017,116.431562,0:00,17:00,0,1,2,4.8
304,海坨山,{自然风光;小众秘境},40.565448,115.826677,0:00,24:00,25,0.5,2,4.6
305,九龙壁,{历史古迹;城市地标},39.938134,116.393984,6:00,21:00,0,2,2.5,3.7
306,密云水库,{自然风光;小众秘境},40.523288,116.920432,0:00,24:00,0,2.5,3,4.8
307,郡王府,{历史古迹;非遗体验},39.939857,116.492899,0:00,24:00,0,3,4,4.6
308,奥加美术馆,{美术馆/艺术馆;小众秘境},39.946317,116.454673,10:00,17:00,0,1.5,2,4.8
309,大江胡同,{商业街区;美食目的地;夜经济热点},39.901462,116.406067,0:00,24:00,0,0.5,1,3.9
310,大运河森林公园,{公园;城市地标;节庆限定},39.882386,116.748895,0:00,24:00,0,2,3.5,4.8
311,北京戏剧嘉年华,{游乐园/体育娱乐;节庆限定;沉浸式体验},39.991143,116.503402,0:00,24:00,0,1,2.5,4.6
312,陶然亭公园冰场,{游乐园/体育娱乐;节庆限定;亲子友好},39.880067,116.39007,9:00,17:00,0,2.5,3,4.1
313,奥林匹克水上公园,{游乐园/体育娱乐;城市地标;节庆限定},40.187846,116.699695,9:00,17:15,20,0.5,2,4.6
314,宝燕乐园(大红门店),{游乐园/体育娱乐;亲子友好;沉浸式体验},39.840015,116.394945,10:30,19:30,95,1,2,4.4
315,清晏舫,{人文景观;城市地标},40.004307,116.276083,6:00,20:00,0,2.5,3,4.8
316,丫髻山,{自然风光;节庆限定},40.279898,116.975711,8:00,16:00,50,2,3,3.7
317,古观象台,{历史古迹;城市地标},39.913502,116.441237,9:00,16:30,20,2,2.5,4.6
318,湖广会馆,{历史古迹;非遗体验},39.894984,116.390322,9:00,22:00,0,2,2.5,4.6
319,莲花池公园,{公园;城市地标},39.8983,116.319451,6:00,22:00,0,2,3,4.8
320,报国寺,{历史古迹;小众秘境},39.89683,116.366124,0:00,16:30,0,2,3.5,4.8
321,秀水街,{商业街区;美食目的地;夜经济热点},39.917614,116.445496,9:30,21:00,0,3,4,4.8
322,北海公园游船,{公园;夜经济热点;沉浸式体验},39.933685,116.397817,9:00,17:00,0,2,2.5,4.1
323,HI-Fun竞技主题乐园,{游乐园/体育娱乐;沉浸式体验;夜经济热点},39.915878,116.285845,10:00,21:00,0,2,3.5,4.2
324,荷花市场,{商业街区;美食目的地;夜经济热点},39.940668,116.398041,0:00,24:00,0,2,3.5,4.8
325,大运河源头遗址公园,{公园;城市地标},40.200992,116.26415,9:00,18:00,0,1.5,2,4.6
326,颐和园-船坞,{公园;城市地标},40.00626,116.275397,0:00,24:00,0,0.5,1,4.4
327,中央电视台新台址,{人文景观;城市地标;网红打卡点},39.923542,116.471357,0:00,24:00,0,0.5,2,4.8
328,北坞公园,{公园;城市地标},39.993037,116.263064,0:00,24:00,0,2,3,4.8
329,恐龙公园,{游乐园/体育娱乐;亲子友好;沉浸式体验},39.889602,116.406452,9:00,17:00,40,1.5,3,4.3
330,詹天佑纪念馆,{博物馆/纪念馆;小众秘境},40.364345,116.013297,9:00,16:30,20,1,2,4.5
331,乾清门,{历史古迹;城市地标},39.925575,116.403468,0:00,24:00,0,0.5,1,4.9
332,东四胡同博物馆,{博物馆/纪念馆},39.933555,116.426715,9:00,12:00,0,2,3.5,4.5
