id,name,lat,lon,price,cuisine,opentime,endtime,recommendedfood
0,深圳文华东方酒店·东湾,22.5574302,114.071873,835.0,粤菜,11:00,21:30,"灯影牛肉,亚麻籽脆皮鸡,龙虾汤泡饭,椒麻煎烹澳洲肉眼皇,上素生煎 ,陈皮红豆沙"
1,金茂深圳JW万豪酒店·万豪中餐厅,22.5364996,114.0323004,500.0,粤菜,11:30,21:00,"自制蜜汁橡果叉烧肉,古铜奇亚籽脆皮胡须鸡,晚收薏丝琳玻璃虎虾球,原只鲜蟹钳（冬瓜虾汤芙蓉蒸）,粤式点心,肉莲蓬竹笙花胶汤,翡翠芙蓉龙虾球配脆米虾球,招牌精美龙虾酥,火焰白汁焗海螺,翡翠汁蟹肉烩竹笙酿燕窝"
2,深圳大梅沙京基洲际度假酒店·行政俱乐部·蔚蓝阁餐厅·牛排·海鲜·红酒威士忌,22.5982115,114.31567,519.0,融合菜,12:00,22:00,"澳洲谷饲M5和牛战斧牛扒1500g,热海路拼盘,西班牙墨鱼汁海鲜烩饭,澳洲谷饲M5和牛肉眼250g,香茅玉米汤,龙虾天使面"
3,深圳星河丽思卡尔顿酒店·星丽中餐厅,22.5331079,114.061508,590.0,粤菜,11:00,22:30,"普宁炸豆腐,辣子鸡丁,脆皮烧鸡,黑椒雪花牛粒,鲍鱼扣鹅掌,海胆炒饭"
4,深圳君悦酒店·主席楼,22.5371792,114.1112416,706.0,粤菜,11:00,22:00,"亚麻籽脆皮鸡,松茸鸡汤冲浪鲜鲍片,黑松露汁芙蓉蒸龙虾,焰烧大鲜鲍,失传多年的白切鸡,琉璃润烧妙龄鸽,焕然一新的凉瓜排骨,二十年花雕玉簪虎虾,风生水起海中鲜,金汤海皇自制黑豆腐"
5,深圳益田威斯汀酒店·威斯汀扒房,22.5377046,113.9759988,400.0,西餐,14:00,22:00,"澳洲西冷,扒房鹅肝,酥炸法国生蚝,黑虎虾天使意面,新西兰鳌虾,金色时光,冰淇淋,帝王蟹饼,提拉米苏,吉拉多生蚝"
6,Ensue,22.536362,114.0570788,2480.0,西餐,17:30,01:00,"澳洲和牛眼肉佐白酒腌渍云南蘑菇,炭烧珍珠鲍佐鲍鱼肝酱,茶纸慢煮牛舌配烟熏河鳗"
7,嘉苑饭店,22.5358724,114.0581565,844.0,粤菜,11:30,22:00,"去骨老鹅掌,黑松茸焗鸡饭,花胶海参捞饭,胭脂红桃胶,黑松露花胶炒滑蛋,黑松露烧麦"
8,利宝阁(嘉里店),22.5353225,114.0568892,156.0,粤菜,10:30,21:30,"八味豆腐,生炒糯米饭,果木烤乳猪,大宝烤鸭,榴莲千丝酥,脆皮虾饺皇,大宝果木烤鸭,脆皮牛肮腩,xo酱干炒牛河,沙爹金钱肚"
9,深圳四季酒店·卓粤轩,22.5335431,114.0579511,526.0,粤菜,11:30,14:30,"卓粤脆皮鸡,蜜味火焰香叉烧,鲍鱼鸡粒酥,鲍鱼酥,蜜味香叉烧,龙太子蒸饺,猴头菇乌鸡汤,百花煎酿带子,葱香蟹粉老虎斑柳,百合虾饺"
10,新荣记(平安金融中心店),22.5331423,114.0556405,823.0,江浙菜,11:30,21:00,"农家盐卤豆腐煲,家烧鲳鱼,黄金脆带鱼,沙蒜烧豆面,脆皮乳鸽,酥皮叉烧包"
11,深圳柏悦酒店·榕阁中餐厅,22.5319009,114.0555408,629.0,粤菜,11:30,22:00,"脆皮烧伊比利亚香猪,川香宫保大虾球,辣酒汁浸花螺,湛江白切鸡,葱油芝麻脆皮鸡捞海螺片,鱼子酱芙蓉帝王鲜蟹肉"
12,深圳鹏瑞莱佛士酒店·云璟,22.5057022,113.9423495,1356.0,粤菜,11:30,22:00, 
13,吴·现代潮菜(深圳店),22.534506,113.9833173,800.0,粤菜,11:30,22:00,"30年老菜脯粥,潮汕卤水老鹅拼,鸡油豆酱白鲳鱼 ,古法炭烧大响螺 ,脆皮澳洲金沙参 ,浓汤焗南澳珠瓜"
14,喜公馆(平安金融中心店),22.5323035,114.0556916,340.0,江浙菜,11:30,21:00,"红烧肉,鸡油花雕蒸三门蟹,驰名公馆脆皮鸡 ,榛果鸭肝酱葱油饼 ,清炒豌豆尖,龙井奶冻"
15,深圳柏悦酒店·皓堂,22.5321092,114.055601,601.0,西餐,06:30,22:00,"战斧牛扒,伊比利亚火腿,脆皮鲷鱼,香煎鸭肝,班尼迪克蛋"
16,江南厨子(华润万象店),22.5400948,114.1111926,165.0,江浙菜,11:00,21:00,"糖醋松子鱼,手剥龙井河虾仁,知味小排,大块东坡肉,杭州鸡毛菜,桂花糯米藕"
17,利苑酒家(罗湖万象城店),22.5379329,114.1110448,400.0,粤菜,11:30,21:00,"冰烧三层肉,香烧港式乳鸭仔,花胶炖响螺汤,蟹肉龙虾汤包,龙虾面,雪山包"
18,深圳彭年万丽酒店·云景轩旋转餐厅 · 云端聚会约会,22.5410768,114.1226063,349.0,自助餐,11:30,21:30,"芝士焗龙虾,现开生蚝,鹅肝寿司,现切牛排,羊排,三文鱼"
19,天妇罗前平,22.5445761,113.9873321,1850.0,日本料理,18:00,22:30,"银杏天妇罗 ,生海胆,花虾天妇罗 ,前平经典紫苏叶包豌豆 ,白子天妇罗,赤茄子天妇罗 "
20,深圳前海华侨城JW万豪酒店·都会尚膳自助餐厅,22.5465151,113.8808131,285.0,自助餐,11:30,21:30,"三文鱼,鹅肝,海螺,生蚝,自制提拉米苏"
21,GENTLE L by AlanYU,22.5392404,114.0698958,1347.0,西餐,12:00,23:00,"东海大黄鱼,新西兰小奶牛,加拿大扇贝,大连鲜鲍鱼,西双版纳棕榈芯,意式板栗饺子,达氏鳇鱼子酱鹅肝慕斯,法国蓝龙虾,波士顿龙虾,澳洲M9和牛"
22,深圳文华东方酒店·叁餐 Bazaar,22.5574757,114.0715313,519.0,亚洲菜,06:30,10:30,"肉眼牛排,龙虾沙拉,香烤脆皮咸鸡,麻辣牛展,牛油果荞麦面,伊比利亚火腿"
23,深圳东海朗廷酒店·唐阁T’ANG COURT 中餐厅,22.5363363,114.020477,746.0,粤菜,11:30,22:00,"北京烤鸭,樱桃鹅肝,一鱼两吃,银丝香酥牛小排,古法蟠龙东星斑"
24,瑞吉酒店·Social秀餐厅·云端自助·俯瞰湾区,22.5430087,114.1065877,496.0,自助餐,07:00,21:30,"现开生蚝,铁板焗波士顿龙虾,高空麻辣烫"
25,深圳香格里拉·香宫中餐厅·粤菜·点心,22.533674,114.1177553,197.0,粤菜,11:00,21:30,"香煎澳洲牛扒,香宫烧卖皇,水晶鲜虾饺,瑶柱灌汤饺,海鲜粥,榴莲酥"
26,深圳博林天瑞喜来登酒店·天瑞轩·粤菜餐厅,22.5831146,113.9723841,287.0,粤菜,10:30,21:30,"红米脆皮鲜虾肠,流沙猪仔包,雪燕高筒蛋挞,养生自磨黑豆腐,高汤蟹皇小笼包,百香果布丁"
27,晴空·日本料理(万象城店),22.5159288,113.9457999,2295.0,日本料理,12:00,22:00,"虎鱼片,甘鲷松笠烧配京都芜菁泥,招牌和牛寿喜烧,越前香箱蟹配胡麻豆腐,玉子烧"
28,6号花园餐厅,22.4795385,113.9134218,159.0,西餐,07:30,20:30,"干式熟成澳洲纯种安格斯牛小排,6号秘制辣酱啫啫本港海鲜,泰式青柠酸辣酱烤黄花鱼,低温慢煮红酒腌制澳洲牛肋骨,6号秘制伊比利亚烤猪肋排,6号私房黑松露乳鸽,鲜虾牛油果莎莎墨西哥薄脆,6号蒜香炒鲜虾,经典焦糖布丁,鲜辣海鲜天使面"
29,深圳盐田凯悦酒店·海鲜烧烤自助餐厅,22.5517157,114.2380652,213.0,自助餐,07:00,21:30, 
30,深圳同泰万怡酒店·万荟轩自助餐厅(同泰店),22.6791058,113.8055667,171.0,自助餐,07:00,10:00, 
31,深圳大中华希尔顿酒店·兰亭潮中餐厅·粤菜,22.5392248,114.069967,348.0,粤菜,11:30,22:00, 
32,东海新生活·精细潮菜(中深花园大厦店),22.5317068,114.0685767,1185.0,粤菜,11:00,21:00, 
33,君庭中餐馆(华强路店),22.5399127,114.0836079,241.0,湘菜,11:00,21:00,"茄子炒豆角,炸排骨,客家酿豆腐"
34,辉记炭烧海鲜(福田店),22.5381481,114.0988639,426.0,海鲜,18:00,00:30,"炭烧九节虾,炭烧濑尿虾,原味锡纸烤波士顿龙虾,清蒸帝王蟹,炭烧猪颈肉串,加拿大生蚝"
35,西湖春天(百汇店),22.5553381,114.1071252,156.0,江浙菜,11:00,22:00,"手剥龙井虾仁,大块东坡肉,笋干老鸭汤,糖醋松子鱼,桂花糯米藕"
36,79号渔船海鲜饭店(笋岗店),22.5645229,114.1096999,227.0,海鲜,11:00,22:00,"椒盐濑尿虾,百香果蒸鲍鱼,蒜蓉烤生蚝,三叔烤大罗虾,清蒸花螺,蒜酱烤波龙"
37,香乐福蒸汽海鲜馆(龙华民治店),22.6007589,114.0459269,154.0,海鲜,11:00,23:30,"基围虾,花甲王,螃蟹,蛏子王,鲍鱼蚌,九肚鱼"
38,龙腾海鲜火锅酒家,22.5388317,114.1248519,1054.0,火锅,11:00,22:00, 
39,1949全鸭季·北京烤鸭(欢乐海岸购物中心店),22.5252213,113.9895697,438.0,北京菜,11:00,22:00,"北京烤鸭,樱桃鹅肝,鲜花椒炝海螺,香辣澳洲牛仔粒,宫保虾球,番茄脆菇沙拉"
40,誉八仙茶室(万象天地店),22.5416495,113.9562296,175.0,粤菜,10:00,21:30,"春风得意肠,誉八仙虾饺,金瑶酱凤爪,鱼翅灌汤饺,八仙乳鸽,燕窝蛋挞"
41,宇德隆记客家食府(龙华店),22.6476687,114.0392089,158.0,客家菜,10:00,21:00,"隆记水晶鸡,招牌客家让豆腐,砵仔家猪肉汤,土法焗家猪肉,黑椒牛仔骨,酥炸生蚝"
42,炳胜品味(深圳湾万象城店),22.5155786,113.9463543,323.0,粤菜,11:00,22:00,"招牌菠萝包,秘制黑叉烧,姜豉汁焗珊瑚鱼,捞起章红,豉油皇鹅肠,炳胜辣海参粒煮豆腐"
43,Fumée 拂鳴,22.5404375,113.9358878,1703.0,创意菜,18:00,23:00, 
44,深圳中洲万豪酒店·万豪中餐厅Man Ho Chinese,22.517497,113.9332459,746.0,粤菜,11:30,22:00, 
45,Voisin Organique,22.5433947,113.9208866,1376.0,西餐,18:00,22:30,"大酱蘸蔬菜条,花椒牛肉拌饭,威化鹅肝"
46,深圳硬石酒店·SESSIONS全日制餐厅,22.7209423,114.0752801,302.0,自助餐,06:30,15:00,"摩洛哥式羊排,传奇汉堡,凯撒沙拉,提拉米苏"
47,深圳硬石酒店·硬石餐厅(观澜湖国际大厦店),22.7209423,114.0752801,169.0,西餐,15:00,24:00, 
48,粤菜王府·海鲜·茶市·海景餐厅(大梅沙店),22.5976801,114.3147575,268.0,粤菜,10:30,22:00,"家烧野生黄鱼,烫手乳鸭,日禾酱煎焗澳洲牛扒,碳煲腊味饭,冰花官燕,王府脆皮带汁乳鸽,太子片皮鸭,龙虾肉竹筒泡手拉面,笋尖鲜虾饺,虾蟹粥"
49,裕华海鲜(福永店),22.6687105,113.8192683,170.0,粤菜,08:30,21:00,"乳鸽,脆皮烧鹅例牌,碳烧伊比利亚猪排,小炒黄牛肉,陈醋浸鸡爪,红米肠"
50,新田,22.535858,114.0620851,1028.0,日本料理,12:00,22:00, 
51,小炳胜(卓悦中心店),22.5360824,114.0651296,166.0,粤菜,11:00,22:00,"招积茄子,黑松露捞起三文鱼,秘制黑叉烧,黑松露脆皮文昌鸡（整只）,澳门虾酱啫农场生菜,雪山奶露包"
52,鮨政·Omakase(平安金融中心店),22.5331914,114.0556555,283.0,日本料理,11:30,21:00,"红酒鹅肝,甜虾刺身,鮟鱇鱼肝,茶碗蒸,矶煮鲍鱼伴肝酱,鹅肝蓉伴吞拿鱼 "
53,渡来料亭(福田本店),22.5343627,114.0636238,666.0,日本料理,11:30,22:00, 
54,老乾杯(平安金融中心店),22.5330645,114.0556915,791.0,日本料理,11:30,22:30, 
55,深圳温德姆至尊酒店·趣味·海鲜自助餐厅,22.5334599,114.0676171,183.0,自助餐,12:00,21:30,"三文鱼刺身八爪鱼,烤生蚝,烤羊排,芒果慕斯"
56,蜑家菜(皇岗店),22.5241906,114.0633111,356.0,粤菜,11:30,22:00,"姜汁半日鲜,烧鹅,雪糕鱼汤,椒盐赖尿虾,蜜汁叉烧,焗鱼肠"
57,兰亭潮禧荟·潮州菜(香蜜湖店),22.5510972,114.0298653,736.0,粤菜,11:00,23:00,"生腌血蚌,铁板烧盐焗鲍魚,招牌黄焖鱼翅,拌白菜心,普宁豆酱蒸小黄鱼,番茄脆菇沙拉"
58,点都德(华强南店),22.5358125,114.0873323,89.0,粤菜,08:30,21:00,"金沙鲜虾红米肠,百合酱蒸凤爪,荔湾艇仔粥,沙爹蒸金钱肚,香芒夹心椰汁糕"
59,禄婶鸡煲·香港打边炉(深圳总店),22.5322431,114.0236875,186.0,火锅,11:00,04:00,"禄婶自制油条酿虾滑,芝士虾丸,禄婶秘制鲍鱼鸡煲,即炸紫菜响铃拼黄金响铃,杏仁豆腐,大大杯禄婶冻柠宝"
60,蘩楼(宝安南路店),22.5502555,114.1096191,89.0,粤菜,08:30,21:00,"广州荔湾艇仔粥,蘩楼露笋虾饺皇,香脆明虾红米肠,绵香沙爹金钱肚,蟹仔鲜虾蒸烧卖,传统手工炸油条"
61,唐宫(东门店),22.545748,114.1168878,131.0,粤菜,08:30,22:00,"唐宫虾饺皇,飘香榴莲酥,蛋黄流沙包,脆皮乳鸽,XO酱炒萝卜糕,惹汁蒸凤爪"
62,鸟鹏烧鸟居酒屋(国贸店),22.5421248,114.1195912,182.0,日本料理,11:00,02:00,"烤牛舌烤串,盐烧牛小排烤串,烤鸡皮,鸟鹏家鸡腿肉加葱,鳗鱼芒果卷,海鲜炒饭"
63,悦兰苑(南山店),22.5363686,113.9933709,408.0,粤菜,11:00,22:30,"鲜炸大油条,白切湛江阉鸡,西班牙黑毛猪火腿,清煮黄花鱼,青花椒蒸湛江膏蟹,蜜汁花腩叉烧"
64,深圳蓝楹湾度假酒店·松亭铁板烧,22.5208049,113.9864386,650.0,日本料理,11:30,22:00, 
65,马旺子川小馆(深圳湾万象城店),22.5168995,113.9463973,155.0,川菜,11:30,20:30,"毛血旺,豆瓣鱼,夫妻肺片,口水鸡,麻婆豆腐,清炒豌豆尖"
66,观海(南山深湾店),22.5065959,113.9432658,456.0,粤菜,11:00,22:00,"清油泡东星斑,香茅烤牛排,观海片皮鸭,盐焗花螺,观海私房鸡,麻辣虾蛄肉"
67,鳥金·炭火焼鳥(南山喜之郎店),22.5085672,113.9406557,723.0,日本料理,17:30,04:00, 
68,蔡澜港式点心(海岸城店),22.5172362,113.9354938,92.0,粤菜,10:00,22:00,"豉汁凤爪,韭黄鲜虾肠粉,赛螃蟹凤眼饺,芙蓉蛋白春卷,晶莹鲜虾饺,流沙包"
69,陶陶居酒家(海岸城店),22.5177137,113.93527,123.0,粤菜,10:00,21:30,"锦绣海鲜红米肠,古法蒸石斑鱼骨腩,酥皮焗叉烧餐包,陶陶居大虾饺,一口酥豆腐,陶陶居百年烧鹅"
70,海大大蒸汽海鲜主题餐厅(欢乐颂店),22.5343655,113.9199734,159.0,海鲜,10:00,23:00,"基围虾,圣子王,花甲王,白沙白,大鲍鱼,椒盐濑尿虾"
71,Paulaner·德国帕拉娜自酿啤酒餐厅(海上世界店),22.4833192,113.9176644,184.0,西餐,15:00,01:00,"脆皮烤猪肘,素菜圆子,黄油煎杂菌沙拉,苹果卷配香草冰淇淋,皇室煎猪肉排,香肠拼盘,半只慕尼黑啤酒节烤鸡,经典慕尼黑白香肠,德式碱水面包棒,主厨沙拉"
72,拉蒂娜·巴西牛排馆 Latina·Brazilian Steakhouse(海上世界店),22.4828963,113.9175606,309.0,拉美料理,11:00,22:00,"烤虾,牛三角肉,烤菠萝,伊比利亚火腿,芝士面包"
73,清莱湾 CHIN RAI(万象前海店),22.5307289,113.8994622,380.0,东南亚菜,11:00,21:00,"炭烧猪颈肉,古法咖喱肉蟹,冬阴功汤,黑松露烤鸡,古法咖喱大虾,飞天通菜"
74,启腾奥林宾馆,22.6818275,114.1995234,194.0,粤菜,11:00,21:00,"文昌鸡,白灼基围虾,豉汁蒸凤爪,虾饺皇"
75,深圳大梅沙京基洲际度假酒店·源·咖啡全日制餐厅,22.59748,114.31442,300.0,西餐,07:00,23:30, 
76,深圳佳兆业万豪酒店·嘉美轩中餐厅,22.5696696,114.459309,231.0,粤菜,11:30,21:00,"手撕盐焗鸡半只,金沙大虾球,香煎蚝仔烙,豆豉杭椒炒牛肉,潮汕榄菜肉松四季豆,清蒸东星斑"
77,漾亚·雍雅合鲜(卓悦中心店),22.5387061,114.0642549,762.0,火锅,10:00,21:30,"麻婆豆腐煨白胡子佐M9和牛 ,青城山黑猪腊味拼 ,一直在进步的野菜锅摊 ,和牛主厨手工酸菜炒饭 ,碧绿口口脆,玉林路蛋烘糕 "
78,火璽,22.5384174,114.0512301,323.0,火锅,11:30,22:00,"纯进口牛肉船,招牌黑松露土猪肉滑,澳洲龙虾滑,珍珠斑,花竹虾,椒盐甜粟米"
79,粤集·粤菜正牌(皇庭广场店),22.5334829,114.0603548,101.0,粤菜,11:00,21:00,"一口酥豆腐,走鬼凉拌鱼皮,鲜花椒冬菜蒸鲈鱼,头抽豉油鸡,土茯苓生熟地炖龙骨汤,脆皮玻璃纸乳鸽"
80,金皇廷(福田店),22.5338926,114.0628106,121.0,粤菜,08:30,21:30,"布丁,榴莲雪媚娘,金钱肚,榴莲布丁,烧卖,雪梅娘,鲜虾沙律,招牌黑金包,脆皮虾沙律,皇廷虾饺皇"
81,深圳星河丽思卡尔顿酒店·PALETTO意大利餐厅,22.5330528,114.0615531,791.0,西餐,12:00,22:30, 
82,犀先生 烧肉餐酒 Bistro(卓悦INTOWN店),22.5321181,114.0647931,158.0,烧烤,11:00,23:00, 
83,FANNOU BISTRO·法诺餐酒馆(福田卓悦INTOWN购物中心店),22.5322619,114.0654667,299.0,西餐,12:00,02:00, 
84,顺德公猪肚鸡(车公庙总店),22.5333969,114.0263828,109.0,火锅,11:00,24:00,"竹笙王猪肚鸡,谷饲肥牛,顺德鱼皮饺,凉拌鱼皮,腊味煲仔饭"
85,香港新发烧腊茶餐厅(书城店),22.5401318,114.1087098,76.0,粤菜,07:00,24:00,"咖喱牛腩饭,原只烧鸭,新发烧鹅,蜜汁叉烧饭,法兰西多士,烤乳猪"
86,极炙·日式炭火烧肉(万象城金威大厦店),22.5386632,114.1135121,231.0,日本料理,11:30,24:00,"澳洲和牛牛五花,炙烧猪五花,澎湖墨鱼肠,葱花牛舌,牛肉汤,台湾熔岩烤起司地瓜"
87,深圳文和友(解放路店),22.5450974,114.1147098,122.0,湘菜,11:30,23:00,"广场豆花,有章牛杂,酱牛肉,盐田老地方肠粉,油焖鸡爪,长沙口味虾"
88,京炙坊,22.5392572,113.9948483,168.0,北京菜,11:00,21:30,"京炙文房酥不腻烤鸭,炙子烤肉,小吊梨汤,老北京炸酱面,京东肉饼,毛血旺"
89,润园四季椰子鸡火锅(华侨城创意园店),22.5384394,113.9921745,125.0,火锅,10:30,22:00,"竹荪椰子鸡,牛肉丸,炸腐竹,海南芋头,泰式轻甜椰冻"
90,荣川菜(华侨城店),22.5348203,113.9828609,282.0,川菜,11:30,21:30, 
91,花园里·餐厅(民治店),22.6279893,114.0375297,87.0,粤菜,10:00,22:00,"黑椒和牛粒,炭烧招积肉,花园里酸菜鱼,酸汤肥牛,照烧童子鸡,缤纷珍珠咕噜肉"
92,深圳博林天瑞喜来登酒店·西丽尚膳,22.5831947,113.9717017,345.0,自助餐,06:30,23:00, 
93,小火璽,22.5123901,113.939967,159.0,火锅,11:00,22:00,"澳洲雪花牛肉,避风塘炒牛蛙,墨鱼猪肉丸,黑松露土猪肉滑,椒盐玉米,海胆炒饭"
94,同仁四季椰子鸡(南山LOFT店),22.5337793,113.9227257,119.0,火锅,10:00,05:00,"腊味煲饭,娃娃菜,椰皇奶冻,普宁炸豆腐,炸腐竹,原味椰子鸡,小菜,莲藕片,烤豆皮,煲仔饭"
95,百草堂祖传凉茶铺(蛇口店),22.4877353,113.9285322,27.0,面包甜点,11:00,02:00,"杨枝甘露,红豆双皮奶,香芋椰汁桃胶,芒果龟苓膏西米露,芒果鲜奶西米露,芋圆龟苓膏香芋"
96,悦满楼·西关名点·湛江名菜(航空综合大厦店),22.5642233,113.9040625,89.0,粤菜,08:00,21:00,"香脆明虾红米肠,绵香沙爹金钱肚,悦满楼虾饺皇,广州荔湾艇仔粥,山楂酥皮叉烧包,招牌超大油条"
97,大东海海鲜酒楼(福永总店),22.6641792,113.8088488,222.0,海鲜,10:00,23:00, 
98,苫也·暮悬崖海景餐厅,22.538747,114.4839507,120.0,西餐,11:00,22:00, 
99,渔村·鹏城饭馆,22.5961866,114.5137909,96.0,客家菜,11:00,21:30,"窑鸡,将军鸭,自磨酿豆腐,濑粉,炸猪肉,蚝仔煎蛋"
100,L'Avenue,22.5374419,114.0652617,680.0,西餐,11:30,22:00,"大竹荚鱼塔塔,龙虾饺,烤土豆,农夫沙拉烤鸭胸,巧克力榛子挞 ,柑曼怡舒芙蕾 "
101,悦景酒家(福田店),22.5365161,114.0514086,841.0,粤菜,11:00,22:00, 
102,協成海鮮火鍋(皇庭中心店),22.5351894,114.0642301,1072.0,火锅,11:30,22:30, 
103,蟹道(平安金融中心店),22.5322728,114.0556638,871.0,日本料理,11:30,21:30, 
104,一樓半 KNOCKCUP 炭火餐酒馆(卓悦中心店),22.5357328,114.0670591,210.0,创意菜,10:00,24:00,"威士忌煮花螺,和牛寿喜烧,辣白菜汤浸龙虾,自制花椒香肠,牛肉塔塔,高菜炒饭"
105,新一味潮汕肠粉王(梅林店),22.5648013,114.0558103,24.0,小吃,07:00,21:00, 
106,老大昌酒楼有限公司,22.5398629,114.0825214,106.0,本帮菜,11:00,21:00,"生煸酒香草头,现做上海熏鱼,红烧狮子头,年糕炒毛蟹,马兰头拌香干,油焖竹笋"
107,香港茗星坊茶餐厅(水围店),22.51836,114.0639289,55.0,粤菜,07:30,21:00,"沙姜爽脆猪手,蒜蓉鸡亦翅尖,发财鸡扒金砖焗饭,黯然销魂饭,暴富漏奶华,好运混酱猪肠粉"
108,匠传点心(上梅林店),22.5711616,114.0588999,96.0,粤菜,08:00,22:00,"水晶虾饺皇,竹笙浓汤小笼包,黑椒金钱肚,百酱蒸凤爪,XO酱炒萝卜糕,鲜虾红米肠"
109,巴蜀风(总店),22.5464525,114.092654,93.0,川菜,11:00,22:00,"毛血旺,水煮鱼,蟹黄豆花,口水鸡,干煸四季豆,蛋煎糍粑"
110,京味张·北京烤鸭店(罗湖店),22.5502741,114.1077374,113.0,北京菜,11:00,21:00,"宫廷精品烤鸭,贵妃佛跳墙,贝勒爷烤羊肉,椒盐鸭架,京味张自制嫩豆腐,王府白菜"
111,陟上味道空中花园餐厅(罗湖店),22.560187,114.104878,119.0,湘菜,11:00,21:00,"双椒水库鱼头,藕尖炒鹅肠,炒血鸭,擂辣椒茄子皮蛋,衡阳臭豆腐,大碗花菜"
112,东记美食馆(笋岗店),22.5612647,114.108339,116.0,粤菜,11:00,22:00,"香煎粒粒墨鱼饼,明星菜鲍汁自磨豆腐,明星菜美极鱿鱼,明星菜秘制碌鹅,沸腾水晶鱼片,虾酱通菜"
113,您好·遇见音乐椰子鸡餐吧(东门店),22.5480342,114.1191838,87.0,火锅,10:30,23:30,"原味椰子鸡,汕头手打牛肉丸,炸腐竹,爽口青瓜,煲仔饭,爽口无骨鸭爪"
114,山禾田·创作料理(罗湖店),22.5410949,114.1205678,118.0,日本料理,11:30,21:30,"魔鬼生蚝,日式炸鸡,金枪鱼牛油果拌饭,鳗鱼玉子烧,牛肉丼,现烤舒芙蕾"
115,椿庐 ChunLounge(华侨城店),22.5373713,113.9923362,256.0,川菜,11:30,22:00, 
116,京庄·铜锅涮(华侨城店),22.5381546,113.9920758,155.0,火锅,11:00,22:00,"老北京特色爆肚,老北京芝麻烧饼,京庄羊肉串,手切鲜羊腱,精选羔羊肋腹肉,鲜切草原羊上脑"
117,常回家客家菜(民康路店),22.6141332,114.0406289,66.0,客家菜,11:00,21:30,"客家酿豆腐,客家炆猪肉,老妈手撕鸡,乳香小腩排,秘制三杯鸭,蒜蓉粉丝娃娃菜"
118,翠园(益田假日广场店),22.5378535,113.9738859,257.0,粤菜,11:00,22:00,"雀笼点心,鲍鱼粉丝煲,脆皮江南百花鸡,贵妃鲜虾球,鲜果拿破仑,片皮鸭,葡汁焗酿响螺,招牌脆皮鸡,鲍汁凤爪"
119,香蜜轩(世界之窗店),22.5363635,113.9727109,146.0,粤菜,11:00,21:00,"侨名牛肋骨,双色蒸鸭嘴鱼,妙龄乳鸽,辣酒浸花螺,石斛花炖豆腐"
120,潮汕喜鹅饭店(万象汇店),22.592724,114.1313765,80.0,粤菜,10:00,22:00,"鹅肉,蚝仔烙,普宁炸豆腐,泰国椰皇炖乌鸡汤,8秒鹅肠,珍馐粉肝"
121,缪氏川菜(龙华天虹购物中心店),22.6279706,114.0214307,76.0,川菜,10:00,21:30,"毛血旺,螺蛳鸡,香酥芝麻鸭,爆炒开胃鸡杂,鼎锅黄豆焖鹅,鱼香肉丝饭"
122,金戈戈香港豉油鸡(海岸城店),22.5177262,113.9356297,88.0,粤菜,11:00,21:30,"香港豉油鸡,现烧西班牙黑金叉烧,脆豆腐,椰皇竹笙炖鸡,客家酸菜,山泉水炖土猪肉汤"
123,极浦亭餐厅(南山太古城店),22.5009367,113.9383214,110.0,粤菜,11:00,22:00,"茂名捞粉,沙姜汁焗大肠,梅录焖芋头,乳香肉包生,黄坡沙姜炒鸡,沙姜爆吊桶"
124,安琰酒店·鹭餐厅ICON KITCHEN,22.506496,113.932474,160.0,西餐,06:30,21:00, 
125,百味馆(后海花园店),22.5016203,113.9330821,152.0,粤菜,11:00,22:00,"香煎农家土豆腐,农家人参水晶鸡,油盐焗海立鱼,清煲黄花鱼,原味花甲煲,麻辣虾蛄肉"
126,顶真牛肉潮式火锅(湾厦店),22.4898164,113.9347737,110.0,火锅,11:00,23:30,"胸口油,潮式牛肉汤饺,芥兰炒河粉,萝卜牛腩,生牛肉丸,精选嫩肉"
127,云来居素食馆(南山店),22.5174156,113.9218839,120.0,素食,10:00,22:00,"香煎美味牛肝菌,核桃包,泼水粑粑,一桶江山,松茸焖饭,菌香藕夹"
128,强记海鲜菜馆(枫叶店),22.5162097,113.9214235,274.0,海鲜,10:00,22:00,"椒盐皮皮虾,蒜蓉粉丝蒸元贝,盐焗花螺,香辣肉蟹,炒花甲"
129,百年果林椰子鸡(宝安总店),22.5579717,113.9095726,130.0,火锅,10:00,22:00,"竹笙王椰子鸡,和味鸡肾,炸支竹,珍珠马蹄,糖焗杂粮"
130,潮旺渔港(大浪店),22.67604,114.0008407,166.0,海鲜,09:30,02:30,"白灼花螺,白灼虾,蒜蓉粉丝蒸虾,炒花甲,粉丝扇贝,椒盐皮皮虾"
131,新世界餐厅(万达店),22.5711549,113.8929228,55.0,粤菜,07:30,22:00,"干炒牛河,品牌烧鹅饭,冰镇菠萝油,鲜虾云吞面,公司三文治,蜜汁叉烧"
132,大鸽饭(大仟里店),22.5705105,113.8722366,107.0,粤菜,11:00,21:30,"传统生炸红烧鸽,盐焗乳鸽,鸽汤万年青,印度椰皇炖老鸽,大鸽饭,拇指小笼包"
133,吴莊(龙岗COCO Park店),22.6910344,114.2289469,73.0,江浙菜,11:00,21:00,"北京果木烤鸭三吃,飘摇神仙鸡,水煮鲈鱼,毛血旺,石锅豆腐,糖醋里脊"
134,先记烧鹅王·深圳本地粤菜(福永总店),22.6734358,113.8229017,88.0,粤菜,11:00,21:30,"烧鹅,原汁椰子鸡炖老鸡,客家酿豆腐,生炒烧鹅饭,香油焖花甲,石锅鹅肝酱焗蛋"
135,点品集(辛养店),22.7385954,113.8105192,35.0,面包甜点,12:30,22:30,"药材鸡脚,芒果布甸,糖不甩,榴莲布丁,椰汁芋头西米露,炸云吞,炸鸡中翅"
136,清香海鲜餐厅(南澳旅游必选店),22.5384168,114.4869209,109.0,海鲜,10:00,02:30,"姜葱炒花甲,海胆炒饭,白灼虾,椒盐皮皮虾,鲍鱼,扇贝"
137,虾说·海鲜音乐餐吧,22.5871359,114.5095242,100.0,海鲜,11:00,23:00,"飘香窑鸡,海胆炒饭,口水鸡,锅巴海鲜烩,蒜蓉粉丝蒸扇贝,白灼海虾"
138,牛小灶牛杂煲(中心城店),22.5353288,114.0604334,81.0,火锅,11:00,22:00, 
139,莫尔顿扒房Morton’s Grille(平安金融中心店),22.5340286,114.0554833,703.0,西餐,11:30,22:00,"美国PRIME极佳纽约西冷排,法国生蚝,珍宝蟹饼,上等腰肉排,美国极佳肉眼牛排,烤芦笋"
140,农畉LONFOOD(卓悦中心店),22.5353088,114.0666975,123.0,西餐,10:00,22:00, 
141,珍庭潮州菜(卓悦中心店),22.5352781,114.0669669,923.0,粤菜,11:30,22:00, 
142,辣可可现炒黄牛肉(卓悦INTOWN店),22.5317135,114.0653587,78.0,湘菜,11:00,21:00,"现炒黄牛肉,坡子街卤猪手,香芋排骨,湖藕龙骨汤,白辣椒肥肠,擂辣椒皮蛋"
143,榕意·川味之美(深业上城店),22.5562074,114.0693516,111.0,川菜,11:00,21:00,"榕意藤椒鱼,川味凉面,手撕包菜,灵魂猪油炒饭,椒香馋嘴蛙,话梅小番茄"
144,深圳文华东方酒店·TAPAS 77,22.55714,114.0714104,550.0,西餐,17:00,22:30, 
145,深圳文华东方酒店·OPUS 388,22.5575098,114.0715292,1454.0,西餐,17:00,22:30, 
146,胡须佬鸡煲四季火锅店(皇岗总店直营店),22.5228348,114.0600306,102.0,火锅,11:00,03:00,"手切本地肥牛,腐竹,招牌胡须佬鸡煲,生腌司蚌,潮州炸豆腐,新鲜鱼皮"
147,有章牛杂(石厦店),22.521619,114.0522325,44.0,小吃,10:00,24:00, 
148,台山佬黄鳝饭(水围店),22.5198981,114.0630071,96.0,粤菜,11:30,22:00,"砂锅焗蚝,台山黄鳝饭,五味鹅,虾酱啫都斛菜花,陈皮番茄,脆皮大肠"
149,西北领头羊·清真餐厅·团建聚会·宴席,22.5682932,114.0694285,98.0,新疆菜,11:00,02:00,"烤全羊,手抓肉,烤羊排,羊肉串,羊杂汤,鸡脆骨"
150,白玉串城·朝鲜族烤串(车公庙店),22.5349986,114.0272776,115.0,烧烤,11:30,24:00,"大板筋,招牌墨鱼肠,五花肉卷金针菇,麻辣牛肉条"
151,深圳福朋喜来登酒店·桂花标帜餐厅,22.5116337,114.0622999,179.0,自助餐,06:30,21:30, 
152,1001西域餐厅·生日聚会餐厅(欢乐海岸店),22.5231876,113.9916921,110.0,新疆菜,11:00,22:00,"大盘鸡,椒麻鸡,羊肉串,新疆炒米粉,丁丁炒面,米泉凉皮"
153,24気艺文生活空间·wineapp,22.5342157,113.9869233,138.0,西餐,11:30,21:30,"M7+皇后,澳洲带子,澳洲羊扒,巴东鲽鱼,金柚大虾沙拉,卡真虾芒果莎莎生菜,冷切拼盘,烤春鸡,水管面,芝士条"
154,清真·耶丽米娅西域主题餐厅(联城店),22.5423293,114.1319954,89.0,新疆菜,10:00,22:30,"新疆大盘鸡,烤羊肉包子,石河子凉皮,炭烤羊肉串,特色馕坑烤羊排,香酥鸡"
155,野·湖南(侨城坊店),22.5522257,113.980223,129.0,湘菜,11:00,21:00,"农夫生炒黄牛肉,辣椒炒肉,半只老母鸡配珍菌,永州血鸭,筒子骨焖回渡鱼,老长沙臭豆腐"
156,深圳益田威斯汀酒店·中国元素中餐厅,22.5375504,113.9744987,158.0,粤菜,09:00,22:00, 
157,博林天瑞喜来登酒店大堂酒廊,22.583048,113.97187,157.0,面包甜点,10:00,22:30, 
158,鄉约這里(坂田店),22.6401039,114.0618263,102.0,湘菜,11:00,21:00,"家常茄子,巴掌牛肉,香辣花蛤虾,小炒黄牛肉,俺家冬瓜,鸡毛菜"
159,一树芙蓉(讯美店),22.5457465,113.9469985,97.0,湘菜,10:00,22:00,"仙泉湖鱼头王,辣椒炒土猪肉,小炒黄牛肉,香菜拌牛肉,永州血鸭,霸王蛙"
160,深圳深铁皇冠假日酒店·星璞全日餐厅,22.53886,113.9446601,300.0,自助餐,06:30,23:00,"煎羊排,提拉米苏,拿破仑酥"
161,至正潮菜(深圳湾万象城店),22.5158494,113.9461053,331.0,粤菜,11:00,21:30,"菠萝咕噜肉,至正脆皮大肠,青椒拌黄喉,豆酱煮小黄鱼,茶油生煎豆腐,海鲜焖饭"
162,就犟牛肉火锅(海王银河店),22.5404386,113.9417766,127.0,火锅,11:00,21:30,"大满足吊龙,大满足嫩肉,就犟黑松露牛丸,就犟牛肉煲仔饭,牛舌,蔬菜拼盘"
163,原牛道·潮汕鲜牛肉火锅(汉京店),22.540491,113.9360696,134.0,火锅,11:00,21:30,"生牛肉丸,吊龙肉,花趾肉,匙柄肉,胸口油,腐皮卷"
164,爱碗亭·鲜炒湖南菜(粤商中心店),22.6565819,114.0371476,71.0,湘菜,11:00,21:00,"招牌小炒鸡,小炒黄牛肉,油焖虾,辣椒炒肉,双色鱼头,酸萝卜炒猪肚"
165,芙蓉楼·茶油炒麻鸡皇(南山常兴店),22.5316769,113.92124,97.0,湘菜,11:00,21:30,"剁椒鱼头,农家小炒肉,血酱鸭,锅仔黑香猪,小炒黄牛肉,铁板蒜蓉开边虾"
166,潮香四海·家传潮汕菜(南山店),22.5201291,113.9229535,103.0,粤菜,11:00,22:00, 
167,盐说Salt Talk北美风味西餐厅(海上世界店),22.4836547,113.9178137,150.0,西餐,11:00,22:00, 
168,新西园饮食店(金烁路店),22.5717358,113.8772434,40.0,快餐简餐,07:00,14:00,"干捞云吞,炸馄饨,猪利拼粉肠,叉烧濑粉,云吞拼肉丸,肉片炒米"
169,深圳机场凯悦酒店·Market Café自助餐·欢乐·亲子餐厅,22.6220304,113.8122721,228.0,融合菜,06:00,21:00,"烤羊腿,香煎鹅肝,牛排,芝士蛋糕,阳澄湖大闸蟹"
170,下村新强记烧鹅店,22.7866439,113.8866657,57.0,小吃,07:00,21:00,"烧鹅米粉,白切鸡饭,丝瓜炒鹅杂,叉烧饭,斋濑粉,鹅头颈"
171,18号酒馆(福田星河COCO Park店),22.5335976,114.0546024,136.0,西餐,11:00,02:00,"招牌盐酥鸡,中东热辣小土豆,爆浆金枪鱼手工窖烤披萨,杂菌拼盘,蜂蜜黄油烤花椰菜,上方西冷"
172,深圳皇庭V酒店·VCAFÉ西餐餐厅·高空自助·俯瞰CBD,22.5312005,114.0639825,222.0,自助餐,06:30,22:00,"田螺,焗烤大龙虾,烤生蚝,澳洲牛小排,小羊排"
173,深圳文华东方酒店·文华饼房 The Mandarin Cake Shop,22.5575098,114.0715292,135.0,面包甜点,10:00,19:00, 
174,胡哥烤肥牛(梅林总店),22.5630152,114.0531368,114.0,烧烤,11:00,02:30,"精品烤肥牛,秘制烤生蚝,鲜美虾滑,烤鸡脆骨,特级S肋条,精选五花肉"
175,黄氏养生甜品专家(梅林卓悦汇店),22.5680738,114.0589924,22.0,面包甜点,10:30,23:30,"牛奶桃胶,手工仙芋圆,招牌姜撞奶,招牌双皮奶,红豆芋圆豆花,牛奶方砖"
176,李师傅脆肚(华强北店),22.5485957,114.0846484,88.0,湘菜,11:00,22:00,"李师傅脆肚,咸蛋黄茄子,铁板土豆片,酸萝卜鸡杂,鱼籽烧豆腐,砂锅四季豆"
177,香火肥肠(福田店),22.5215916,114.0342867,86.0,火锅,11:00,01:00, 
178,潮江春(福田店),22.5342604,114.0190479,182.0,粤菜,09:30,23:00,"潮江春虾饺皇,泡椒凤爪,泰式榴莲酥,金钱肚,冻花蟹,流沙包"
179,胜记酒家(荔枝公园店),22.5458268,114.1040687,170.0,粤菜,11:00,22:00,"蟹黄豆腐,豉汁焗黄沙蚬,京葱焗鱼唇,啫啫鸭舌,虾酱啫啫芥兰,芝士焗番薯"
180,华膳中餐厅·粤菜(深圳华侨城洲际大酒店),22.5325378,113.9846338,208.0,粤菜,11:30,21:30,"健康黑豆腐,华膳虾饺皇,水煮巴沙鱼,秘制焖雪花牛肉,香煎蚝仔烙,杨枝甘露"
181,维也纳国际酒店(深圳北站店)·锦粤宫精致粤菜,22.60645,114.0280103,114.0,粤菜,08:00,22:00,"深井烧鹅,光明浸烧乳鸽,湛江白切鸡,菊花芯炒牛柳,香大师牛腩,香煎盐水豆腐"
182,丹桂轩(华侨城店),22.5465215,113.9745967,198.0,粤菜,08:00,23:00,"丹桂肠粉皇,豉汁蒸凤爪,翅汤虾饺皇,凤凰千层糕,流沙包,烧猪手"
183,潮悦牛肉火锅店(西丽龙井店),22.5595851,113.9730963,132.0,火锅,11:00,02:30,"牛胸油,牛展肉,吊龙,牛肉丸,湿炒牛河,炸腐竹"
184,大自然醉鹅(南山店),22.5673552,113.954149,92.0,火锅,11:00,24:00,"醉鹅,鹅肠,腐竹,鹅血,榴莲飞饼,鹅肝"
185,深圳湾木棉花酒店·小南洋(深圳湾店),22.519059,113.9471695,205.0,东北菜,07:00,22:00,"酱猪手,酱骨架,锅包肉,葱烧海参,萝卜焖牛腩,干锅土鸡贴馍,川北拉皮,土猪肉炖粉条,排骨土豆油豆角,砂锅西红柿肉沫老豆腐"
186,电白鸭粥店,22.5840816,113.9531392,61.0,小吃,10:30,23:00,"白切鸡,白灼鸭肠,沙姜炒鸡,炸大肠头,豉油皇吊筒,鸭粥"
187,老吉士·上海菜(深圳湾万象城店),22.5166313,113.9463785,327.0,本帮菜,11:30,21:00,"外婆红烧肉,糖醋小排,熏小黄鱼,响油鳝丝,蟹粉小笼包,葱油拌面"
188,喜记·潮牛庄(西丽店),22.581118,113.9502064,112.0,火锅,11:00,02:00,"雪花肥牛,吊龙伴,湿炒牛河,匙柄肉,牛肉丸,胸口油"
189,深圳龙华希尔顿逸林酒店·開全日制餐厅,22.6562704,114.0383299,233.0,自助餐,06:30,21:30,"芝士龙虾,羊排,小龙虾"
190,牛百鲜·牛腩煲火锅(学府路店),22.5279027,113.9207643,115.0,火锅,11:00,03:00, 
191,KUDDO COFFEE(G&G创意社区店),22.4916845,113.9185851,31.0,咖啡店,08:30,19:30,"Kuddo豆乳杯,奶砖dirty,燕麦拿铁,澳白,豆花拿铁,西柚苏打"
192,何止料理(海上世界店),22.4863285,113.9167368,68.0,日本料理,11:30,21:00, 
193,银影餐厅,22.5909423,113.8439785,81.0,粤菜,10:30,21:30,"茶叶排骨,萝卜酥,鱿鱼肉饼,碌鹅,芋头肉卷,油炸大肠"
194,深圳佳兆业万豪酒店·金沙全日餐厅,22.5693041,114.4606965,297.0,自助餐,06:30,23:00, 
195,北海渔村酒楼·粤菜海鲜(新华店),22.5379646,114.0527462,135.0,海鲜,10:00,22:30, 
196,潮宗汇酒楼,22.5354899,114.0620102,96.0,粤菜,10:00,21:30,"虾饺,米网布拉肠,豉汁蒸凤爪,堂煎安格斯牛仔骨,沙爹金钱肚,鲜虾芝士春卷"
197,傲廬·飨酌,22.533936,114.0553426,615.0,自助餐,11:30,23:30,"波士顿龙虾,俄罗斯黑鱼子酱芙蓉雪场蟹,鹅肝,安格斯t骨牛排,司康"
198,隐厨·中国菜馆(卓悦中心店),22.5364269,114.0652226,167.0,湘菜,10:00,21:30,"江南富贵神仙鸡,小米油渣土豆丝,压锅小芋头牛腩,湘西一代霸王双椒鱼头,小炒口味肥肠,澳洲牛排烧黄金土豆"
199,深圳四季酒店·MATSUYI,22.5332784,114.0580981,920.0,日本料理,11:30,22:00,"铁板烧M9肉眼,粉雪鹅肝金目鲷手握寿司,前菜海胆鲍鱼三文鱼籽豆腐蛋黄酱,小青龙山药丸子芙蓉清汤,蚝豆腐冬笋荞麦冷面,抹茶冰淇淋芭菲"
200,深圳中洲圣廷苑酒店·凤凰楼(华强店),22.5495269,114.0883354,129.0,粤菜,08:30,21:30,"金枕飘香榴莲酥,虾饺皇,泰式爆炒萝卜糕,炸春卷,铁板牛仔骨,xo酱蒸凤爪,金钱肚,早茶"
201,天天渔港·宴会厅(福田店),22.5429653,114.0912589,94.0,海鲜,08:30,23:30,"金钱肚,黑椒牛仔骨,凤凰流沙包,港式菠萝包,陈皮牛肉丸,蟹黄干蒸烧卖"
202,唐宫壹号(香蜜湖店),22.5359052,114.0194413,409.0,粤菜,10:00,22:00, 
203,深圳君悦酒店·乐厨海鲜自助餐,22.537043,114.111244,432.0,自助餐,06:30,21:30,"生蚝,扒类,甜点,日本料理,时令海鲜"
204,海底捞火锅(金光华广场店),22.5397741,114.1205825,115.0,火锅,10:00,02:00, 
205,深圳富苑皇冠假日套房酒店·富临门中餐厅,22.542287,114.120887,143.0,粤菜,11:30,21:30,"天然红米脆皮肠,富苑虾饺皇,金酱蒸凤爪,百香果布甸,黑松露烧麦,鲜麻石锅牛肉粒"
206,粤海荟,22.5245829,113.9704032,1852.0,粤菜,11:30,22:30, 
207,大董(深圳湾万象城店),22.5160899,113.946639,499.0,北京菜,11:00,21:30,"大董22天”酥不腻“小雏鸭,奇妙虾球,董氏葱烧海参,清炒豌豆尖,芥末手剥鸭掌,大董·冰糖葫芦"
208,龙苑酒楼(龙华总店),22.660223,114.032228,157.0,客家菜,08:00,22:00,"烤羊腿,铁板牛仔骨,蒜蓉蒸排骨,风味猪手"
209,蚝老板生蚝海鲜烧烤(码头店),22.4830516,113.9286276,217.0,烧烤,17:00,24:00,"蒜蓉烤生蚝,串烤小海虾,活烤鲍鱼,烤象拔蚌仔,活烤小青龙,烤鸡脆骨"
210,龙记·香港茶餐厅(南山店),22.512638,113.9147185,65.0,粤菜,08:30,22:00,"黑椒杂扒蛋包饭,黯然销魂饭,甜蜜蜜大虾沙律,外星球冬阴功泡饭,滑蛋三宝饭,街头三宝"
211,超级甲板海鲜自助(观澜店),22.7219955,114.0751985,152.0,自助餐,11:30,21:00,"三文鱼,肥牛卷,皮皮虾,铁板牛排,烤生蚝"
212,3號碼頭·海鲜饭店(盐田店),22.5843439,114.2776029,186.0,海鲜,11:00,21:00,"海胆炒饭,红烧乳鸽,鲜花椒蒸鱼,避风塘炒蟹,蒜蓉粉丝蒸元贝,盐焗海螺"
213,五谷芳乳鸽王(海景店),22.5947608,114.3074493,128.0,粤菜,10:00,21:30,"五谷芳红烧乳鸽,美极吹鱿筒,椒盐白濑尿虾,蒜蓉粉丝蒸元贝,烤生蚝,客家酿豆腐"
214,深圳福田香格里拉大酒店·大堂酒廊,22.5362425,114.0572518,139.0,咖啡店,10:00,22:00, 
215,亿民平安国际大酒店·西餐厅(彩田北路店),22.5434889,114.0683239,163.0,自助餐,18:00,21:30, 
216,木棉·醉心粤味(COCO Park店),22.5334456,114.054027,150.0,粤菜,11:00,21:30,"禾秆草烧乳鸽,烧鳗鱼烩饭 ,初恋咕噜肉,龙井烟熏太爷鸡,厚切岩烧牛舌,胡椒啫章鱼须"
217,大無烧肉(卓悦中心店),22.5362023,114.066455,563.0,日本料理,11:30,22:30,"大无现切和牛上脑,大无幻切和牛牛舌,澳洲和牛菲力三明治,霜降雪花和牛小排,薄切横膈膜,墨鱼肠"
218,深圳柏悦酒店·悦厅,22.5321208,114.0557616,232.0,自助餐,09:30,24:00, 
219,蘩楼(华强北店),22.5446856,114.0836703,92.0,粤菜,09:30,21:30, 
220,点心传说(港式点心·佐阾虹湾店),22.5610845,114.0401975,90.0,粤菜,10:00,21:00,"豉汁蒸凤爪,厨神一品虾饺,黑松露虾饺,凉拌金钱肚,红米脆皮肠,天鹅榴莲酥"
221,潮泰牛肉火锅 · 创于1992年(车公庙店),22.5319307,114.027332,97.0,火锅,11:00,23:00,"招牌牛肉丸,干炒牛河,招牌湿炒牛河,胸口油,吊龙,玉米"
222,点都德(KKONE店 ),22.5270763,114.0271123,95.0,粤菜,09:00,21:00, 
223,爵廊 Duke's,22.5362991,114.0205001,550.0,西餐,17:00,01:00, 
224,金谷1号海鲜酒楼(泰然六路店),22.5308434,114.0214151,106.0,海鲜,11:00,22:00,"虾饺皇,特色沙姜猪手,片皮鸭,酱皇金钱肚,红烧脆皮乳鸽,飘香榴莲酥"
225,深圳深航国际酒店·Café Wings羽翼阁·咖啡厅,22.5344228,114.0194048,144.0,自助餐,06:30,23:30, 
226,深圳彭年万丽酒店·燃餐厅,22.5410919,114.1226272,262.0,湘菜,12:00,20:30,"湘西血鸭,宫廷万福肉,私厨啫啫鸡煲,农家小炒肉,客家酿豆腐,双椒鱼头"
227,MAGPIE喜鹊派餐厅(华侨城店),22.5397879,113.9928067,285.0,融合菜,11:00,22:00,"地三鲜,谁又把我鸭子杀了,酸面包,锅巴棒棒肉,鳗鱼,烤羊肉"
228,蝴蝶梦音乐餐厅(欢乐海岸店),22.5237941,113.9911911,133.0,融合菜,12:00,02:00,"酸菜鱼,金沙皇焗虾,三杯鸡,黑椒牛仔骨,特色沙姜猪手,台湾梅子风味薯条"
229,四海一家自助餐(益田假日广场店),22.5376805,113.9758884,185.0,自助餐,11:30,21:00,"酥皮海王汤,三文鱼刺身,炭烧生蚝,铁板牛扒,香煎美味鹅肝"
230,宽米砂锅粥(白石洲店),22.5328079,113.9670901,120.0,粤菜,11:00,03:00,"普宁炸豆腐,番薯叶,豉椒炒花甲,膏蟹基围虾粥,烤茄子,三丝炒米粉"
231,大董烤鸭店(万象天地店),22.5415255,113.9565305,658.0,北京菜,11:00,22:00,"大董酥不腻烤鸭,董氏葱烧海参,麻婆豆腐鹅肝 ,香辣猪脚卷,M9牛排,番茄脆菇沙拉"
232,柿合缘新京菜(万象天地里巷店),22.5424188,113.9563465,395.0,北京菜,11:00,21:30, 
233,深圳西丽南蓉大酒店·南蓉大酒楼,22.5767119,113.9534466,96.0,粤菜,07:00,21:00,"虾饺皇,凤爪蒸排骨,金钱肚,牛仔骨,流沙包,片皮鸭"
234,荣粤酒家·传承粤菜(科兴科学园店),22.5488535,113.9446945,133.0,粤菜,11:00,21:00,"荣粤虾饺皇(超),特色沙姜猪手,芝麻鸡,九层塔鹅肝牛柳粒,金网锅贴饺,流沙包"
235,深圳鹏瑞莱佛士酒店·星空坊Sky Cafe,22.5059843,113.9423427,298.0,自助餐,06:30,22:00,"生蚝,乔斯博烤炉烤炙澳洲牛肋排,莱佛士招牌冰激凌,冰镇海鲜精选,刺身,松茸竹笙竹丝鸡海螺清汤,西班牙伊比利亚5J火腿"
236,渔民食堂·台山生蚝餐厅(君尚3019店),22.5069479,113.9406422,241.0,海鲜,11:00,22:00,"蒜蓉原味双拼大蚝,大连青鲍鱼,北极贝,海螺片,小青龙,西冷肥牛"
237,南香楼艺术酒店(华侨城甘坑古镇店)·凤凰客家餐厅,22.6576352,114.1037897,98.0,客家菜,07:30,21:00,"客家盐焗捞鸡,子姜爆炒牛肉,招牌乳鸽,蒜蓉蒸吊桶,客家酿豆腐,客家猪肉汤"
238,蛇口康乐快餐鱼仔档(翠苑小区店),22.4879047,113.9282689,80.0,小吃,11:00,22:00,"椒盐九肚鱼,豉油皇吹筒仔,香煎龙利鱼,蚝仔煎蛋,清蒸黄花鱼,豉汁炒花甲,炒河粉,吹筒,黄花鱼,吊筒"
239,嘉华小吃(蛇口店),22.4858338,113.9281196,30.0,小吃,07:00,21:00,"干贝粽,板栗咸肉粽,牛杂粉,腊鸭腊味煲仔饭,牛腩云吞,牛肉煲仔饭"
240,21天的秘密·干式熟成牛排餐吧(蛇口店),22.4855125,113.9164121,391.0,西餐,11:30,22:30,"美国21天干式熟成安格斯西冷牛排,美国干式熟成21天无激素T骨,花生油灼时蔬,经典干式熟成肉酱意大利面,鸡肉凯撒沙拉,黑松露蘑菇汤"
241,深圳盐田凯悦酒店·享悦中餐厅,22.5513233,114.2378105,168.0,粤菜,11:30,21:30,"火焰蜜汁叉烧,石锅黑椒雪花牛肉,乳鸽,翡翠葱油无骨鱼,白切果园走地鸡,话梅彩茄"
242,清晖小苑·功夫烧腊顺德菜(观澜湖MHmall店),22.7225219,114.0752509,87.0,粤菜,10:30,22:00,"盐焗乳鸽,鲜嫩香豆滑,顺德捞起手撕鸡,顺德捞鱼皮,砂锅鱼头,顺德豆腐烧"
243,先歌山水山庄(九围店),22.646464,113.8591625,143.0,农家菜,11:30,22:00,"香煎巴马猪,葱油鸡,孜然羊排,荔枝木烧鹅,鲍汁手工豆腐"
244,森记潮州砂锅粥(大梅沙店),22.5953309,114.3050317,79.0,粤菜,16:00,02:00,"虾蟹砂锅粥,红烧乳鸽,白灼青口,椒盐濑尿虾,凉拌无骨凤爪,葱姜炒蟹"
245,深圳大梅沙京基洲际度假酒店·大堂吧,22.597515,114.314266,139.0,面包甜点,10:00,21:00, 
246,曼格活海鲜·牛排自助(大仟里店),22.7759268,113.8937209,147.0,自助餐,10:00,22:30,"火焰牛排,基围虾,生蚝,三文鱼,鲍鱼,羊排"
247,紫苑茶馆(中心书城店),22.5463384,114.0590966,128.0,粤菜,10:00,22:30,"盐焗鸡,清蒸白仓鱼,客家酿豆腐,猪油拌饭,客家萝卜丝蛋角煲,紫苑招牌酱鸭"
248,顺意顺德家乡菜·宴会厅(中心商务大厦店),22.5369327,114.0527314,145.0,粤菜,11:00,21:30,"煎焗鱼嘴,红豆双皮奶,姜葱酱爆牛展,沙姜猪手,XO酱炒陈村粉,胜瓜鱼滑浸白贝"
249,the eating table(卓悦中心店),22.5377845,114.0658778,215.0,西餐,11:30,22:00, 
250,肥韬金牌茶餐厅(皇庭旗舰店),22.5340499,114.0602317,73.0,粤菜,10:00,22:00,"惠灵顿牛排,滑蛋虾仁炒牛河,滑蛋牛肉炒牛河,芝士瀑布牛肉汉堡,黯然销魂饭,漏奶华"
251,四季椰林椰子鸡(福田皇庭广场店),22.5330801,114.0602692,116.0,火锅,11:00,22:00,"招牌竹笙椰子鸡套餐,精品肥牛片,竹笙虾滑,芝士包心丸,麻辣牛肉,腊味煲仔饭（大）"
252,大有利茶餐厅(福民店),22.522923,114.0636404,65.0,粤菜,07:30,04:00,"流沙西多士,大有利初恋奶油猪仔包,煎蛋菠萝油,鼓汁蒸凤爪,鲜虾云吞面,大有利虾饺皇"
253,冰村大叔·煲仔粥糖水店(梅林居店),22.5659809,114.0583648,48.0,小吃,17:00,02:00,"咖喱鱼蛋,冰糖陈皮莲子绿豆沙,海鲜粥,皮蛋瘦肉粥,莲子花生红豆沙,白灼菜心"
254,深圳回酒店·回中餐厅·粤菜,22.54854,114.0821,180.0,粤菜,09:00,22:00,"官燕酿凤翼,脆皮乳鸽,食神炒饭,话梅南瓜,客家艾草糕"
255,宜宾海鲜酒家·二十八年老字号,22.5415838,114.0894723,106.0,海鲜,07:30,24:00,"深井烧鹅,石锅香汁牛仔骨,印度飞饼,盐焗基围虾,海皇粉丝煲"
256,好当家(福田店),22.5426675,114.0908313,111.0,粤菜,09:30,24:00,"红葱头腌鸡,客家豆腐,芝士焗虾,清蒸多宝鱼,石锅香汁牛仔骨,鲜人参糯米炖家鸡"
257,缪氏川菜(泰然店),22.533392,114.026432,73.0,川菜,11:00,21:00, 
258,喜荟,22.5421072,114.0913545,78.0,粤菜,08:30,24:00,"金沙红米肠,水晶虾饺皇,酱皇蒸凤爪,烤乳鸽,蜜汁叉烧包,荔湾艇仔粥"
259,深圳福朋喜来登酒店·聚味轩中餐厅,22.5115997,114.0622999,166.0,粤菜,11:00,21:00, 
260,深圳东海朗廷酒店·廷廊,22.536197,114.020374,245.0,咖啡店,10:00,22:00, 
261,新粤塔里木河餐厅,22.5372373,114.1002096,125.0,新疆菜,11:00,21:30,"手抓饭,大盘鸡,手抓羊肉,风味馕包肉,新粤秘制烤羊排,新疆凉皮,羊肉串,西域大拌菜"
262,鑫泰泰国料理(kk mall店),22.5447208,114.1066245,155.0,东南亚菜,11:00,22:00,"海鲜冬荫功汤,碳烧猪颈肉,三巴酱炒通菜,青咖喱牛肉,龙虾片,咖喱螃蟹"
263,深圳君悦酒店·悦景扒房·西餐厅,22.536918,114.11125,836.0,西餐,18:00,22:00,"牛肉塔塔,纽约客牛排,战斧牛排,豪华海鲜拼盘,阿拉斯加冰淇淋,柑橘腌挪威三文鱼,法式椒香牛柳"
264,国贸旋转餐厅(国贸广场店),22.540913,114.1195909,156.0,粤菜,08:00,22:00,"虾饺,泰国榴莲酥,顺德双皮奶,柱侯牛肚,铁板黑椒牛仔骨"
265,青蓬酒家,22.569298,114.113241,130.0,粤菜,10:00,22:30,"片皮鸭,红烧乳鸽,清蒸多宝鱼,普宁炸豆腐,铁板牛仔骨,粉丝蒸元贝"
266,陶源酒家(金光华广场店),22.539645,114.1201314,224.0,粤菜,10:00,22:30,"鸡煲翅,烧鹅,鲍汁凤爪,虾饺,叉烧包"
267,普语堂·臻品客家菜(华侨城创意文化园店),22.5371182,113.9929461,88.0,客家菜,11:00,21:00,"客家生局酿豆腐,葱油鸡,沙姜猪手,招牌三杯鸭,客家猪肉汤,藕尖炒爽肉"
268,陈鹏鹏卤鹅饭店(欢乐海岸店),22.524465,113.9922649,109.0,粤菜,11:00,22:30,"大红袍鹅肝,7秒鹅肠,鹅掌,香煎蚝仔烙,鹅背（2018原创）,泰国椰皇炖乌鸡"
269,庭悦餐厅(华侨城店),22.535306,113.9850362,84.0,融合菜,11:00,21:00,"淇淋面包,庭悦烤鲈鱼,蟹黄豆腐,素炒千叶豆腐,小米星糕,庭悦烤肉,糖醋排骨"
270,龟老吉凉茶店(凤凰路店),22.5479082,114.1367249,16.0,面包甜点,13:00,23:00,"秘制龟苓膏,杂果仙草凉粉,紫薯绿豆沙,椰汁西米露,马蹄芦荟糖水"
271,木屋烧烤(布吉老街店),22.601038,114.117186,78.0,烧烤,10:00,05:00, 
272,谭厨中山传家菜(百合店),22.5985306,114.1209732,114.0,粤菜,11:00,21:00,"土茯苓中山乳鸽,腊味乳鸽饭,椒盐莲藕,香茅焗脆鱼腩,葱爆雪花牛肉,谭厨双皮奶"
273,土蚝金竹笼蒸蚝生蚝·烧烤(白石洲店),22.5374699,113.9670768,128.0,烧烤,16:30,02:00,"马勺鸭血,蒜蓉烤生蚝,羊肉串,马勺千层肚,辣炒龙虾尾,碳烤鸭舌"
274,金牌陶陶居(万象天地店),22.5414367,113.955144,137.0,粤菜,10:00,21:30,"陶陶居大虾饺,卡珍芝士焗糯米鸡,一口酥豆腐,百搭酱皇蒸凤爪,冰镇咕噜肉,酥皮水牛奶菠萝包"
275,深圳湾万丽酒店·万丽轩WAN LI XUAN中餐厅,22.5317222,113.9507926,599.0,粤菜,11:30,21:30,"黄椒酱鱼头,夫妻肺片,招牌盐香脆皮桂香鸡,牛油果脆皮卷,炭烧牛肋皇,龙虾泡饭"
276,橘焱胡同烧肉夜食(保利店),22.5172473,113.9381579,350.0,日本料理,12:00,22:00,"达拉斯,墨鱼香肠,葱烧牛舌,和牛板腱肉,牛肋条,菲力"
277,GODIVA(海岸城店),22.517308,113.934929,54.0,面包甜点,10:00,22:00, 
278,九柄·北京烤鸭(天安云谷店),22.6600284,114.0683055,119.0,北京菜,10:00,22:00,"九柄如意烤鸭,步步高升,京香爆肚,元宝酥皮虾,九柄炸酱面,炙子烤肉"
279,深圳中洲万豪酒店·南山尚膳自助餐,22.5173972,113.9334406,427.0,自助餐,07:00,23:00, 
280,杉姐老火锅(深圳总店),22.520903,113.9231533,140.0,火锅,10:30,02:00, 
281,好好味面家(桃园店),22.5329985,113.9208161,26.0,小吃,07:00,22:00, 
282,佳俊八宝牛杂,22.4865036,113.9296182,29.0,小吃,11:00,01:00,"纯牛筋,萝卜牛杂,牛丸牛杂河粉,纯牛腩,豆腐串,纯萝卜"
283,客语客家菜(宝安海雅店),22.5597537,113.9057788,81.0,客家菜,11:00,21:00,"客家酿豆腐,古法手撕盐焗鸡,小炒黄牛肉,非一般腐竹,紫苏炒花甲,嫩滑猪红"
284,宝立方·中餐厅,22.5807689,113.8917279,87.0,粤菜,09:00,22:00,"宝立方虾铰,金沙有机红米肠,黑椒焗牛仔骨,百合酱蒸凤爪,清蒸青斑鱼"
285,深圳登喜路国际大酒店·柏顿餐厅(西乡店),22.5937475,113.8779922,223.0,自助餐,11:30,21:30,"长脚蟹,烤生蚝,三文鱼,龙虾,小鲍鱼,花螺"
286,深圳龙岗珠江皇冠假日酒店·悦咖啡西餐厅,22.7233595,114.2509306,217.0,自助餐,06:00,21:30, 
287,顶峰香港茶餐厅(公明红花山店),22.7785727,113.8982661,66.0,粤菜,07:30,22:00,"花雕油鸡,咖喱牛筋腩饭,新派酸菜鱼,黯然销魂饭,港式云吞面,菠萝咕噜肉饭"
288,深圳趣墅HAJANA海边民宿·WildSpark·欢畔海景餐厅,22.5477409,114.4779867,225.0,西餐,11:00,22:00,"香煎大黑虎虾,老人与海·烟熏银鳕鱼颊,惠灵顿牛排,老虎蟹炒年糕,芝士牛油果吞拿鱼·海员馅饼,大虾牛油果沙拉"
289,大鹏原生态乐园农家乐,22.5811581,114.479728,75.0,农家菜,08:00,22:00,"柴火碌鹅,火烧荔枝木鸭,沙姜炒鸡半只,窑鸡,葱油捞面,客家酿豆腐"
290,炎珀EMBER·炭火和牛(嘉里建设店),22.5354602,114.0575299,855.0,日本料理,12:00,22:00, 
291,植庭寿司(卓悦中心店),22.5376362,114.0659229,2325.0,日本料理,12:00,22:00, 
292,南乡·精功顺德菜(卓悦中心店),22.5364391,114.0651915,170.0,粤菜,11:00,21:00, 
293,乐凯撒披萨(福田COCOPark店),22.5340763,114.0537889,72.0,西餐,10:00,22:00, 
294,bluefrog蓝蛙(皇庭广场店),22.5333438,114.0606478,141.0,西餐,10:00,23:00, 
295,钱塘潮·精致江浙菜(福田COCO Park店),22.5331522,114.054573,156.0,江浙菜,11:00,22:00, 
296,深圳星河丽思卡尔顿酒店·ONYX大堂酒廊,22.5330679,114.061508,220.0,面包甜点,20:00,01:00, 
297,敏华冰厅( 卓悦中心店),22.5354969,114.0661829,65.0,粤菜,10:00,21:00,"咖喱鱼蛋,敏华黯然销魂饭,菠萝油,脆皮鸡中翼,滑蛋虾仁饭,新鲜出炉酥皮蛋挞"
298,晓文客家本色·客家菜(福田卓悦INTOWN店),22.5320495,114.0649232,82.0,客家菜,11:00,21:00, 
299,CAVE 窟 Whiskey Bar,22.53144,114.06392,360.0,西餐,18:00,02:00, 
300,79号渔船海鲜饭店(岗厦店),22.5334033,114.0685763,258.0,海鲜,11:00,22:30, 
301,室集海鲜烤肉自助(梅林店),22.564294,114.056224,95.0,海鲜,11:30,22:30, 
302,潮汕大目牛肉火锅(振兴西路店),22.5466867,114.0833135,107.0,火锅,11:00,24:00,"招牌牛筋丸,招牌生丸,尊品黄肥牛,湿炒牛河,尊品牛百叶,超级胸口油,花展肉"
303,OCHO西班牙餐吧,22.5190137,114.0618711,170.0,西餐,12:00,21:30, 
304,幸运牛汕头小黄牛牛肉火锅(梅林店),22.5677143,114.059027,99.0,火锅,11:00,23:30,"五花趾,匙柄,吊龙伴,湿炒牛河,炸腐竹,手锤牛肉丸(熟)"
305,徐记海鲜(车公庙NEO店),22.535769,114.029564,269.0,湘菜,11:30,21:00, 
306,肖三胖·老湖南土菜(梅林店),22.576728,114.05688,122.0,湘菜,11:00,21:00,"大碗黄牛肉,土匪猪肝,柴火土猪肉,农家土泥鳅,地锅柴火鱼（黄骨鱼）,香辣嗦螺"
307,深圳四川宾馆(福田区通新岭地铁站店)·川香楼酒家,22.5487821,114.095229,113.0,川菜,11:00,21:00, 
308,满庭芳川菜馆,22.537704,114.097347,94.0,川菜,11:30,22:30, 
309,大浪潮·潮汕菜·招牌生腌小青龙(福田店),22.5376629,114.1024368,172.0,粤菜,11:30,02:00,"生腌小青龙,煎焗小黄花鱼,金不换炒薄壳,生腌虾,生腌蟹,橄榄猪杂煲"
310,豪林居·潮汕菜·海鲜打冷(八卦一路店),22.557057,114.1012483,138.0,粤菜,11:00,00:30,"卤水拼盘,潮式炸豆腐,红烧墨鱼,汕头蚝仔烙,香芋芡实煲,海鲜和味炒花甲"
311,王品牛排(深圳深南店),22.54038,114.10381,398.0,西餐,11:30,21:00, 
312,探鱼·鲜青椒爽麻烤鱼(万象城店),22.5400083,114.1103854,99.0,川菜,11:00,20:30, 
313,闽和南(深圳万象城店),22.5400368,114.1107726,187.0,闽菜,11:00,21:30, 
314,匠传(万象城金威大厦店),22.5386801,114.1136003,100.0,粤菜,08:00,21:30, 
315,木屋烧烤(东门一店),22.545666,114.116916,90.0,烧烤,11:00,03:00, 
316,香宫中餐厅·粤菜·点心(深圳香格里拉店),22.5336742,114.1177549,204.0,粤菜,11:00,21:30, 
317,云海肴(深圳罗湖金光华店),22.539702,114.120017,93.0,云南菜,11:00,22:00, 
318,gaga(金光华店),22.539128,114.120028,75.0,西餐,10:00,23:00, 
319,福鑫记猪肚鸡(东门茂业店),22.5473878,114.1210877,80.0,火锅,11:00,22:00, 
320,悦景酒家(罗湖店),22.5449761,114.1325684,513.0,粤菜,09:30,21:30,"叉烧肉,招牌油条,悦景水晶虾饺,乳鸽,鲍汁凤爪,蚝仔泡饭,现炸大油条,百味蒸凤爪,餐后豆腐花,水果拿破仑"
321,深圳深铁铂尔曼酒店·璞肴中餐厅,22.6123979,114.0307955,141.0,粤菜,11:30,22:00, 
322,V-club餐厅·生日·聚会·酒吧,22.5365935034979,113.977160060134,327.0,粤菜,16:00,02:00, 
323,王品牛排(益田假日广场店),22.537271,113.97538,417.0,西餐,11:30,21:00, 
324,gaga(喜荟城店),22.56866,114.139093,80.0,西餐,10:00,23:00, 
325,潮德阿水牛肉火锅(白石洲分店),22.5363934,113.9671615,97.0,火锅,11:00,03:00,"胸口油,精品雪花,吊龙伴,三花趾,手锤牛肉丸,雪花脖兰"
326,海皇廷酒家(民治店),22.6280083,114.0376688,96.0,粤菜,08:30,21:30, 
327,牛排家(万象天地店),22.5412906,113.9573198,429.0,西餐,11:00,22:00,"湿式熟成精品黑椒牛排,牛排馆招牌惠灵顿,黑松露芝士薯条,菌香蘑菇汤,招牌和牛塔塔,冬阴功汤青口"
328,JOURNÉE夏内西餐厅,22.542556,113.9559624,640.0,西餐,11:30,22:00,"法式松露薯条,现烤玛德琳 ,海胆鱼子酱手卷,炭烤八抓鱼 ,招牌桌边燃烧罗西尼牛扒,巴厘岛香草冰淇淋泡芙"
329,火璽·紫隐九州,22.5362389,113.9553783,430.0,火锅,11:30,21:30,"招牌香辣牛蛙,红毛蟹,黑松露小豆腐,乳山生蚝,精选牛小排,招牌椒麻和牛卷"
330,Galleria Bistro 高空餐酒馆(万象天地店),22.5411216,113.9529182,215.0,西餐,17:30,23:30, 
331,SHAUGHNESSY Restaurant & Bar,22.537829,113.944849,1074.0,西餐,11:30,22:30,"战斧牛排,菲力,红屋带骨腰肉,薯条,蘑菇汤,焦糖布丁"
332,深圳湾安达仕酒店·BAR1919,22.5148665,113.9471497,231.0,酒吧/酒馆,18:00,24:00, 
333,深圳湾安达仕酒店·西室 West Room,22.5148665,113.9471497,800.0,西餐,11:30,22:00, 
334,锦航酒店·桃园盛宴,22.6062521,114.154253,125.0,粤菜,10:30,22:00, 
335,深圳鹏瑞莱佛士酒店·长廊酒吧 Long Bar,22.505955,113.9424287,346.0,酒吧/酒馆,14:00,01:00,"深圳司令,新加坡司令,泰式菠萝饭大吉利,冇茅台,浪味仙格丽特,老妈陈皮茶,南果木烟熏古典,甲壳玛丽,糯香麻吉,蓉梅沙瓦"
336,松哥油焖大虾(海岸城店),22.5169032,113.9388675,137.0,小吃,10:00,02:00, 
337,Panos The Steakhouse & Lounge 潘若斯牛排馆酒廊,22.50839,113.9408696,1141.0,西餐,11:00,24:00,"澳洲干式熟成战斧牛排,招牌珍宝蟹肉饼,脆炸虎虾配塔布勒沙拉,熟成乳鸽配松露蘑菇"
338,堂本家·二代目·炸猪排(海岸城店),22.518071,113.936152,93.0,日本料理,11:00,22:00, 
339,王品牛排(海岸城店),22.517544,113.935409,440.0,西餐,11:30,21:00, 
340,gaga(海岸城店),22.517695,113.935285,80.0,西餐,10:00,22:30, 
341,客语概念店(海岸城店),22.51713,113.9353695,92.0,粤菜,11:00,21:00, 
342,云海肴(深圳南山海岸城店),22.516837,113.934866,101.0,云南菜,11:00,22:00, 
343,点都德(海岸城店),22.5184862,113.9344567,94.0,粤菜,08:30,21:00, 
344,植藤·匠 日本料理(中洲万豪店),22.517483,113.9332549,1099.0,日本料理,11:00,22:00, 
345,六本堂·鳗鱼居酒屋(来福士广场店),22.511437,113.92571,119.0,日本料理,11:30,22:00,"三文鱼刺身,海鲜沙拉,盐麴青花鱼,牛油果沙拉,凉拌海葡萄,鹅肝寿司,鲽鱼边寿司"
346,江味龙虾馆(南山店),22.5249,113.9225,142.0,小吃,11:00,03:00,"招牌口味虾,鲜榴莲飞饼,孜然花菜,脆皮臭豆腐,老坛仔姜蛙,冰镇毛豆"
347,火胖子肥肠煲(南新店),22.5302053,113.9190039,99.0,川菜,10:00,02:00,"酸菜炒饭,肥肠蛙煲,鸭血,酸菜肥肠煲,肥肠蹄筋煲,小酥肉"
348,老字号蛇口德记烧腊饭店,22.486812,113.9282908,89.0,小吃,07:30,20:30,"烧鹅,椒盐虾,澳门烧腩肉,椒盐九肚鱼,蜜汁叉烧,桶子油鸡"
349,牛家庄牛肉面(蛇口老街店),22.4857378,113.9278371,29.0,小吃,08:00,03:00,"牛丸牛腩面,牛丸牛肉面,潮州芋头菜粿,韭菜粿,牛杂汤,牛杂牛丸汤"
350,石板街港式餐厅(海雅缤纷城店),22.559546,113.906509,75.0,粤菜,10:00,22:00,"黑松露滑蛋吐司,蜜汁叉烧,港式路边咖喱拼盘,干炒牛河,冰火菠萝油,一口炸豆腐"
351,有炙气·中华料理(宝安贰店),22.5604215,113.9038114,103.0,日本料理,11:00,22:00,"三文鱼刺身,火焰帝皇蟹盖饭,炙烧蟹棒寿司,鹅肝寿司,海草小吃,手打土豆泥"
352,2046湘味厨房(蛇口汇港店),22.4856985,113.9156488,189.0,湘菜,11:00,21:30, 
353,龙酒场寿喜锅日本料理(海上世界店),22.483733,113.9162185,241.0,日本料理,11:00,24:00, 
354,东海皇宫海鲜酒家,22.5690725,113.9047055,90.0,海鲜,08:00,21:00,"豉汁凤爪,红米肠,金钱肚,东海虾饺皇,红烧顶鸽皇"
355,Terrace露台泰国菜·现场音乐,22.4836273,113.9154749,148.0,东南亚菜,11:30,02:00,"冬阴功汤,烤猪颈肉,明炉清蒸鱼配酸橙汁,咖喱虾,青咖喱鸡,青木瓜沙拉"
356,炳胜私厨(万象前海店),22.5310206,113.8997643,579.0,粤菜,11:00,22:00,"招牌菠萝包,黑椒汁生烧安格斯牛肋骨,太史燕窝粥,私房老鱼露黑豚肉焗肉蟹,玻璃脆皮香茅石歧乳鸽,西班牙5J火腿九节虾生"
357,故里和山火锅(欢乐港湾店),22.5434805,113.8857549,144.0,火锅,11:00,22:00,"手打鲜虾滑,红糖糍粑,精品肥牛,水晶牛肉,三色面,八秒土豆片"
358,巴蜀风月·宴会厅(宝安店),22.5612589,113.8807387,101.0,川菜,11:00,22:00, 
359,恒丰海悦国际酒店天一日本料理,22.58075,113.88204,238.0,日本料理,11:30,22:30, 
360,青峰乳鸽(中科谷店),22.7073731,114.1060011,81.0,粤菜,11:30,21:00,"红烧乳鸽,猪肉闷咸菜,苦瓜炒牛肉,炒鸽胗,菜脯鸡蛋,炒番薯叶"
361,旺阁渔村(石岩店),22.6805144,113.9390399,102.0,粤菜,07:00,22:00,"豉汁蒸凤爪,鲜虾烧麦皇,铁板黑椒牛仔骨,旺阁虾饺皇,招牌菠萝包,红烧光明乳鸽"
362,巴迪奥餐吧,22.7205037,114.0791667,169.0,西餐,11:00,23:00, 
363,南里奥巴西烤肉(观澜湖MHmall店),22.7220815,114.0751985,98.0,自助餐,11:00,21:30, 
364,招引attract(观澜店),22.7331057,114.087179,1048.0,创意菜,11:30,21:30, 
365,深圳观澜湖度假酒店·四季日本料理,22.7374476,114.0760117,326.0,日本料理,11:00,22:00, 
366,师公会海鲜酒家(盐田店),22.5860387,114.2791255,175.0,海鲜,11:00,22:30,"烤生蚝,海胆蒸蛋,蒜茸粉丝带子,白心尿虾仔,海胆炒饭,黄金大饼"
367,悦得闲广式点心茶楼(上影影城店),22.7213477,114.2326041,83.0,粤菜,08:00,21:00, 
368,深圳机场凯悦酒店·享悦中餐厅,22.6256499,113.81295,300.0,粤菜,11:30,21:30, 
369,深圳大梅沙京基洲际度假酒店·蔓阁东南亚风味特色餐厅,22.5976621,114.3146793,308.0,东南亚菜,11:30,21:30,"黄咖喱肉蟹,蔓阁小吃拼盘,手打泰式奶茶/香茅柠檬绿茶,芒果糯米饭,菠萝海鲜炒饭,海鲜冬阴功汤,安格斯泰式牛肋排"
370,深圳宝利来国际大酒店·凤凰阁旋转餐厅,22.6723953,113.8275572,330.0,自助餐,11:30,21:30,"煎鹅肝,牛仔骨,三文鱼,碳烧蚝,鱼翅汤"
371,国际会展中心希尔顿酒店·青雅中餐厅,22.7053814,113.7778702,304.0,粤菜,12:00,21:30,"爆汁脆皮乳鸽,灯影牛肉,香芒芥末虾球,青雅虾饺皇,桂花瑶柱紫米粉,始创红米肠"
372,永盛隆海鲜大排档(大鹏店),22.591792,114.4743333,86.0,海鲜,00:00,23:30,"姜葱炒螃蟹,椒盐虾,粉丝扇贝,白灼虾,豉椒炒花甲,清蒸石斑鱼"
373,景好海鲜餐厅(大鹏必选旅游店),22.549637,114.481942,124.0,海鲜,11:00,22:00, 
374,南粤春酒楼(大鹏店),22.5841201,114.4825486,75.0,粤菜,08:00,21:00,"酱皇蒸凤爪,沙姜猪手,沙爹金钱肚,南粤春虾饺皇,鲜虾红米肠,焦糖马蹄糕"
375,鹏城人家海鲜酒家(较场尾总店),22.5915671,114.5145643,120.0,海鲜,10:30,22:30,"大鹏窑鸡,大鹏炸猪肉,招牌秘制烧鹅,蒜蓉粉丝蒸扇贝,椒盐皮皮虾,海胆炒饭"
376,gaga(中心书城店),22.546297,114.060017,85.0,西餐,10:00,22:00, 
377,鹤松·高空の上居酒屋(福田灯光秀店),22.5424402,114.0636493,480.0,日本料理,11:30,01:00,"活海胆,鳌虾,新西兰黑金鲍,松叶蟹,和牛刺身"
378,胡桃里音乐酒馆(领展中心城店),22.5365265,114.0594786,120.0,川菜,17:00,02:00, 
379,KYOKU日本料理(嘉里建设广场店),22.5359568,114.0580032,331.0,日本料理,11:30,21:30, 
380,西原村日本料理·铁板烧(好日子皇冠假日酒店),22.5369577,114.0535625,769.0,日本料理,11:30,22:30, 
381,哈里哈·黑牛私厨(购物公园店),22.5364174,114.0544143,278.0,烧烤,11:30,22:00, 
382,SAANCI山池咖啡(卓悦中心店),22.5383013,114.0642944,49.0,咖啡店,08:00,22:00, 
383,克茗冰室(中心城店),22.5354196,114.0591504,57.0,粤菜,11:00,21:30, 
384,DQ(深圳连城新天地店),22.5349001,114.0587001,27.0,面包甜点,10:00,22:00, 
385,黄晓猫剁椒大鱼头(福田店),22.53701,114.05121,158.0,湘菜,10:30,21:30,"剁椒大鱼头,紫苏小龙虾,秘制红焖甲鱼,秘制口味蟹,紫苏香辣牛蛙,稻香五谷鸭,香辣烧汁凤爪,霸道尖椒肥肠,秘制口味烧鸡公"
386,就是啫•顺德菜•露营烧烤•团建(购物公园店),22.535,114.05378,102.0,烧烤,11:00,24:00, 
387,岚山庭,22.5365118,114.0511151,738.0,日本料理,11:30,22:00, 
388,FineRao梵音轻体素食(平安金融中心店),22.533879,114.055602,107.0,素食,10:00,21:30, 
389,费大厨辣椒炒肉(皇庭广场店),22.5336807,114.0591308,80.0,湘菜,11:00,21:00, 
390,本源食集 日式烧肉·炉端烧(卓悦中心店),22.5361316,114.0648824,340.0,日本料理,11:30,22:00,"昆布汁烧日本特大帆立贝,甘鲷龙鳞烧,盐烧和牛小排,关西风蒲烧鳗鱼,石锅鸡汤五目烧饭团,洛神樱花山葵昆布牛肉卷"
391,哈根达斯(皇庭店),22.533821,114.060196,58.0,面包甜点,10:00,22:00, 
392,江户前日本料理·铁板烧(皇庭广场店),22.5334687,114.0592058,361.0,日本料理,11:00,22:00, 
393,农畉LONFOOD(购物公园店),22.533914,114.054374,115.0,西餐,10:30,22:00,"低温慢烤春鸡,土耳其风味鸡翅,温泉蛋三文鱼,松露芝士培根意面,黑松露风干菌菇脆薄饼,牛油果沙拉"
394,燃扒房Steakhouse(皇庭店),22.5352585,114.064207,357.0,西餐,11:30,22:00,"香煎法式鹅肝,烤厚肋眼牛排紫菜海苔,M9牛小排500G,燃特色牛小排,奶油松露蘑菇汤,南瓜汤"
395,黑木Mokutan·鳥を焼く· 焼鳥(福田店),22.5338855,114.061709,637.0,日本料理,17:30,01:00,"招牌鸽腿,鸽胸肉,梅子紫苏鸡腿肉,黑松露土豆扇贝,鸡胗,鸡肉棒"
396,唐宫(彩德店),22.5436927,114.0685533,134.0,粤菜,08:30,22:00, 
397,山东老家(卓悦中心店),22.536409,114.065814,104.0,鲁菜,11:00,21:00, 
398,云璟高空铁板烧•日料(市中心灯光秀店),22.5342095,114.0626843,237.0,日本料理,11:30,22:30,"铁板雪花牛肉,厚烧牛舌,铁板法国鹅肝,黑松露鹅肝卷,土豆泥沙律,南瓜派"
399,gaga(平安旗舰店),22.532975,114.055365,108.0,西餐,08:00,24:00, 
400,泰香米泰国餐厅(卓悦中心店),22.5361223,114.0662748,194.0,东南亚菜,10:00,22:00, 
401,温野菜日本涮涮锅(福田CocoPark店),22.533034,114.0546824,183.0,日本料理,11:00,21:00, 
402,鮨一日本料理(大中华店),22.539286,114.0688771,1486.0,日本料理,11:30,22:00, 
403,尊宝比萨(景田店),22.54899,114.04793,46.0,西餐,09:00,22:00, 
404,The M熟成牛扒(卓悦中心店),22.5356004,114.0664675,423.0,西餐,11:30,22:00, 
405,gaga(卓悦中心店),22.535861,114.066769,85.0,西餐,10:00,22:30, 
406,隐谷Omakase(福田财富店),22.533373,114.063853,926.0,日本料理,11:30,22:30,"茶碗蒸,清酒煮鲍鱼,紫苏海胆天妇罗,日本生蚝,静冈蜜瓜,北海道松叶蟹肉啫喱"
407,Sushi Man(福田店),22.5333585,114.0642235,2022.0,日本料理,11:30,21:30, 
408,大中华希尔顿酒店·大堂吧,22.5392997,114.0696002,122.0,咖啡店,08:00,23:00, 
409,旬野菜·寿喜烧放题(卓悦intown店),22.5320392,114.0645579,182.0,自助餐,11:00,21:30,"澳洲和牛牛肩,澳洲和牛五花,谷饲牛舌,甜虾,鳕鱼,杏仁豆腐"
410,七湘·小炒黄牛肉(皇岗店),22.5312747,114.064045,73.0,湘菜,10:30,21:30, 
411,寿司大(福田店),22.5319206,114.0659012,462.0,日本料理,11:30,22:00,"马粪海胆,海胆紫苏天妇罗,大海虾天妇罗,煮萝卜带子鹅肝,金枪鱼大腩,日式蒸鸡蛋"
412,叫嚎Oyoyster(深业上城店),22.557698,114.0702606,221.0,西餐,11:00,23:00, 
413,松哥油焖大虾(皇岗一店),22.5247992,114.0623528,162.0,小吃,10:00,02:00, 
414,木屋烧烤(皇岗村店),22.523743,114.061967,86.0,烧烤,11:00,06:00, 
415,潮汕大目牛肉火锅(福华店),22.5360162,114.0788066,93.0,火锅,00:00,24:00, 
416,木屋烧烤(上梅林店),22.564256,114.059572,85.0,烧烤,11:00,03:00, 
417,樱·高空日式烧肉(日落海景店),22.5218444,114.0531913,234.0,日本料理,11:30,22:30,"厚切特选牛小排,一本壶腌制牛肋条,厚切牛舌,酱烧特制横膈膜,樱桃烧肉饭,土豆沙拉"
418,岚LAN SUSHI&COCKTAIL,22.5218243,114.0532438,215.0,日本料理,12:00,22:30, 
419,胖明螺蛳粉,22.5215772,114.0523014,39.0,小吃,11:00,24:00, 
420,喜荟萃(景田店),22.5551803,114.0366573,28.0,面包甜点,07:00,22:00, 
421,爱碗亭·鲜炒湖南菜(石厦时代广场店),22.5202703,114.0533157,71.0,湘菜,10:00,21:00, 
422,gaga(中航城君尚购物中心店),22.542024,114.083164,74.0,西餐,10:00,22:00, 
423,老周记顺德双皮奶,22.566402,114.053342,20.0,面包甜点,11:00,21:30,"三丝炒陈村粉,红豆双皮奶,双皮奶窝蛋,鹰嘴豆龟苓膏,鲜奶桃胶,椰汁双皮奶"
424,天宝兄弟•湘菜龙虾馆(梅林直营店),22.5663042,114.0649772,161.0,湘菜,10:30,22:00,"绝味去骨鸭掌,泰椒炒油甲,三味茄子,美极卤凤爪,天宝虾尾,干锅跳跳蛙"
425,金茂深圳JW万豪酒店·大堂酒廊,22.53651,114.032211,137.0,咖啡店,08:00,23:00,"卡布奇诺,黑森林蛋糕,帕林内酥皮千层,荔枝柚子开心果甜品,冰美式"
426,重庆印象老火锅(梅林店),22.5671037,114.0477777,129.0,火锅,11:00,02:00, 
427,润园四季椰子鸡火锅(卓悦汇店),22.5691074,114.0600766,129.0,火锅,11:00,22:00, 
428,乐凯撒披萨(卓悦汇店),22.5691161,114.0599814,63.0,西餐,10:00,22:00, 
429,翠华餐厅(华强北店),22.5452831,114.0862144,62.0,粤菜,10:30,20:00, 
430,gaga(卓悦汇店),22.569341,114.060241,84.0,西餐,10:00,22:00, 
431,胖哥俩肉蟹煲(华强北茂业店),22.545228,114.086308,91.0,海鲜,11:00,22:00, 
432,渔一居酒屋(福田店),22.5519243,114.030882,192.0,日本料理,11:30,01:00, 
433,探炉(华强北茂业店),22.5455171,114.086392,85.0,川菜,10:00,21:30, 
434,Kibar·日式串烧·烧鸟(绿景NEO店),22.5361008,114.0297476,428.0,日本料理,17:30,04:00,"黑毛牛舌厚烧,紫苏梅肉,明太子西葫芦,黑毛猪小番茄,黑毛猪芦笋,鲑鱼籽帆立贝"
435,牛排家(绿景NEO店),22.5359461,114.0297616,388.0,西餐,11:00,22:00,"果木炙烤安格斯牛小排,招牌和牛塔塔,惠灵顿牛排,生牛肉薄切沙拉,奶香南瓜汤,澳洲和牛炒饭"
436,必胜客(卓悦汇店),22.570173,114.059913,80.0,西餐,10:00,22:00, 
437,哈根达斯(卓悦汇店),22.570375,114.060013,86.0,面包甜点,10:00,22:00, 
438,老碗会·陕西手工面(群星店),22.5479991,114.087371,38.0,西北菜,10:00,21:30, 
439,原味主张椰子鸡(岁宝益田店),22.515533,114.050941,100.0,火锅,10:00,22:00, 
440,深南道·现代潮菜,22.5355255,114.0273273,800.0,粤菜,11:00,22:00,"炭烧南澳响螺,鸡汤秒灼象拔蚌,油醋汁肉饼蒸和乐蟹,清炖鸽吞翅,石斛汁浸花胶,砂锅姜茸炯东星斑,玻璃乳鸽,黑松露堂炒鱼翅,冻龙虾鱼饭,生腌膏蟹"
441,云来居素食馆(总店、原香蜜湖店),22.5201877,114.0375591,111.0,素食,10:00,22:00, 
442,木屋烧烤(南园店),22.537883,114.090559,83.0,烧烤,11:00,03:00, 
443,二把手烧烤(华强北店),22.5440132,114.0910613,100.0,烧烤,17:00,04:00, 
444,先启半步颠小酒馆(深圳首店),22.5346245,114.0258996,94.0,川菜,11:00,22:00, 
445,神坂烧肉酒场(博今国际店),22.5301012,114.0271318,236.0,日本料理,10:00,22:00, 
446,八合里牛肉火锅(振中路店),22.5429396,114.091776,95.0,火锅,11:30,24:00, 
447,潮汕大目牛肉火锅(博今国际店),22.5298945,114.0270371,103.0,火锅,11:00,22:00, 
448,破店肥哈·东北烧烤(华强北店),22.54434,114.09232,97.0,烧烤,17:00,03:00, 
449,克茗冰室(金地威新中心店),22.517022,114.037815,53.0,粤菜,11:00,21:00,"旧金山西多士,牛叉滑滑蛋饭,蒜蓉鸡亦尖,椒盐鸡脆骨,咖喱鱼蛋,泥石流爆奶华"
450,蛙来哒(京基KKone店),22.5285384,114.0267191,91.0,湘菜,11:00,21:30, 
451,gaga(KKone店),22.52702,114.02752,77.0,西餐,10:00,22:00, 
452,韩牛大叔·活鳗鱼炭火烧肉(深圳首店),22.5420177,114.0929747,116.0,韩国料理,11:30,24:00, 
453,千叶·寿喜锅·和牛自助(KKONE店),22.52645,114.027527,148.0,自助餐,11:30,22:00, 
454,星怡会(KKONE店),22.5283269,114.0263824,114.0,东南亚菜,11:00,21:00, 
455,木屋烧烤(燕南店),22.545163,114.093136,86.0,烧烤,11:00,03:00, 
456,胖哥俩肉蟹煲(KK ONE店),22.527724,114.026526,93.0,海鲜,10:30,22:00, 
457,周师兄重庆火锅(车公庙店),22.5307529,114.0246309,155.0,火锅,10:00,02:00, 
458,COMMUNE幻师(十亩地店),22.5325873,114.0236177,116.0,西餐,18:00,04:00, 
459,阿飛冰室(下沙店),22.5285959,114.0248956,57.0,粤菜,08:00,22:00,"招牌瑞士鸡翼,菠萝包,旧金山西多士,迷你黑松露炒蛋多士,马苏里拉鸡扒蛋包饭,芝士烧猪颈肉捞一丁"
460,哎呦喂小龙虾·川湘菜(下沙店),22.5278424,114.0251633,131.0,小吃,11:00,00:30, 
461,潮香四海·家传潮汕菜(泰然总店),22.5303407,114.0238676,96.0,粤菜,11:00,22:00, 
462,酒余韵来葡萄酒馆YUYUN WINEBAR,22.5368052,114.0215993,293.0,创意菜,14:00,01:00, 
463,尊宝比萨(上沙店),22.522252,114.028195,34.0,西餐,09:00,22:00, 
464,本源食集 日式烧肉·炉端烧(东海缤纷店),22.5367566,114.0203742,260.0,烧烤,11:30,22:00, 
465,CoasTea手造纯茶(车公庙店),22.5364371,114.0204012,45.0,面包甜点,10:00,22:00, 
466,gaga(东海店),22.536755,114.020226,85.0,西餐,10:00,22:00, 
467,花素里·和风洋食(东海店),22.5363404,114.0197821,131.0,日本料理,11:30,21:30, 
468,青筠焱烧肉·酒巷(福田店),22.523419,114.0248546,237.0,日本料理,11:30,22:30,"青筠炒饭,卷心菜沙拉,冷乌冬"
469,YO!Tea有茶（福田中信广场店）,22.5393384,114.100041,22.0,面包甜点,09:00,22:00, 
470,八合里牛肉火锅(东园店),22.5376199,114.1016168,95.0,粤菜,11:00,23:30,"吊龙伴,五花趾,干炒牛河,三花趾,胸口油,匙柄"
471,九號渔港(八卦岭店),22.5578579,114.0994792,144.0,海鲜,09:30,23:30, 
472,西贝莜面村(八卦岭店),22.5573588,114.0999469,89.0,西北菜,10:30,22:00, 
473,Bonne patisserie·蛋糕定制,22.5626974,114.0974679,261.0,面包甜点,09:30,18:30, 
474,木屋烧烤(八卦岭店),22.557692,114.100642,94.0,烧烤,11:00,03:00, 
475,金椰壳(印力中心店),22.5445366,114.0120258,193.0,东南亚菜,11:00,21:00, 
476,周师兄重庆火锅(KK MALL 京基店),22.5442627,114.1064307,149.0,火锅,11:00,22:00, 
477,天宫OnlyYou·云端私宴,22.5431836,114.1069203,900.0,粤菜,10:30,21:00,"首创茅香黑松露元首溏吉鲍,王府黄焖翅,白切湛江超级大腌鸡,鲍汁扣脆皮乌沙参,鲍汁扣花胶"
