id,name,type,lat,lon,opentime,endtime,price,recommendmintime,recommendmaxtime,star
0,长隆野生动物世界,{游乐园/体育娱乐;亲子友好;沉浸式体验},23.007944,113.321711,9:30,18:00,300,2.5,4,4.8
1,广州长隆度假区,{游乐园/体育娱乐;亲子友好;沉浸式体验},23.006399,113.330527,0:00,24:00,0,2.5,4,4.8
2,广州塔,{人文景观;网红打卡点;城市地标;夜经济热点},23.112223,113.331084,9:30,22:30,149,0.5,1.5,4.9
3,广州长隆国际大马戏,{游乐园/体育娱乐;沉浸式体验},23.009036,113.337965,15:00,21:00,350,1,2,4.8
4,长隆欢乐世界,{游乐园/体育娱乐;亲子友好;沉浸式体验},23.00481,113.33685,10:00,18:00,250,2.5,4,4.7
5,珠江夜游,{游乐园/体育娱乐;夜经济热点},23.115119,113.294879,9:00,22:30,98,1,2,4.6
6,长隆水上乐园,{游乐园/体育娱乐;亲子友好;沉浸式体验},23.007665,113.330724,10:00,21:30,69,2,3,4.7
7,广东科学中心,{游乐园/体育娱乐;亲子友好;沉浸式体验},23.045368,113.369589,9:30,16:30,60,2,3.5,4.6
8,陈家祠,{历史古迹;网红打卡点},23.132609,113.251995,9:00,18:00,0,3,3.5,4.9
9,长隆飞鸟乐园,{游乐园/体育娱乐;亲子友好},23.031355,113.284204,9:30,18:00,100,1.5,2,4.6
10,沙面,{历史古迹;网红打卡点;夜经济热点},23.112627,113.251119,0:00,24:00,0,0.5,2,4.9
11,广东省博物馆,{博物馆/纪念馆;亲子友好;沉浸式体验},23.120537,113.33296,0:00,24:00,0,2.5,4,4.8
12,广州动物园,{游乐园/体育娱乐;亲子友好},23.146478,113.311833,8:00,18:00,0,3,4,4.8
13,正佳广场商贸旅游区,{商业街区;亲子友好;夜经济热点},23.137807,113.333654,10:00,22:00,0,3,3.5,4.8
14,正佳极地海洋世界,{游乐园/体育娱乐;亲子友好;沉浸式体验},23.137758,113.332856,10:00,22:00,125,0.5,2,4.7
15,南越王博物院(王墓展区),{博物馆/纪念馆},23.143943,113.267507,9:00,17:30,0,1,2.5,4.8
16,中山纪念堂,{红色景点;城市地标},23.139129,113.271126,9:00,17:30,8,2,3.5,4.9
17,大佛古寺,{历史古迹},23.128808,113.274392,6:00,21:00,0,2.5,3,4.9
18,白云山,{自然风光;小众秘境},23.190623,113.306556,0:00,24:00,0,1,2,4.8
19,广州热雪奇迹,{游乐园/体育娱乐;亲子友好;沉浸式体验},23.432566,113.23773,10:30,20:30,198,1.5,3,4.6
20,广州融创文旅城,{游乐园/体育娱乐;亲子友好;沉浸式体验},23.435167,113.241125,0:00,24:00,0,1,2,4.7
21,中国科学院华南国家植物园,{公园;小众秘境},23.188836,113.372578,7:30,17:30,19.9,0.5,1,4.8
22,北京路步行街,{商业街区;美食目的地;夜经济热点},23.127945,113.275422,0:00,24:00,0,0.5,2,4.8
23,珠江夜游天字码头,{游乐园/体育娱乐;夜经济热点},23.120996,113.277576,9:00,22:30,98,2.5,4,4.5
24,越秀公园,{公园;小众秘境},23.14608,113.272266,0:00,22:00,0,0.5,2,4.7
25,永庆坊,{商业街区},23.120549,113.244008,0:00,24:00,0,1,2.5,4.8
26,西关永庆坊旅游区,{文化旅游区;夜经济热点},23.12075,113.244039,0:00,24:00,0,2.5,4,4.8
27,沙湾古镇,{历史古迹;夜经济热点},22.909439,113.340932,9:00,17:30,30,1.5,3,4.6
28,上下九步行街,{商业街区;美食目的地;夜经济热点},23.119805,113.252523,0:00,24:00,0,3,4,4.6
29,广州圣心大教堂,{历史古迹;网红打卡点},23.120805,113.266558,9:00,11:00,0,2,2.5,4.8
30,广州融创乐园,{游乐园/体育娱乐;亲子友好;沉浸式体验},23.435471,113.246764,11:00,18:00,208,3,4,4.6
31,白水寨风景名胜区,{自然风光;节庆限定},23.599255,113.771154,8:30,17:30,54,1,1.5,4.6
32,岭南印象园,{文化旅游区;夜经济热点},23.043105,113.412924,9:30,18:00,54,2.5,4,4.5
33,黄埔军校旧址纪念馆,{博物馆/纪念馆;红色景点},23.092368,113.431318,9:00,17:00,0,2,2.5,4
34,宝墨园,{文化旅游区},22.900712,113.300935,8:30,17:00,48,2,2.5,4.7
35,南沙天后宫,{人文景观},22.762606,113.625188,8:30,17:00,14.9,1,1.5,4.5
36,森林海嬉水乐园,{游乐园/体育娱乐;亲子友好},23.573071,113.770945,10:00,21:00,0,1.5,3,4.5
37,广州博物馆,{博物馆/纪念馆;网红打卡点},23.143971,113.27211,9:00,18:00,0,1.5,3,4.8
38,珠江夜游广州塔财富码头,{游乐园/体育娱乐;夜经济热点},23.113208,113.333565,9:00,22:30,108,1.5,3,4.7
39,珠江夜游大沙头码头,{游乐园/体育娱乐;夜经济热点},23.118706,113.291887,9:00,22:30,93,1.5,3,4.6
40,余荫山房,{历史古迹},23.017654,113.402024,8:00,18:00,18,1,2.5,4.7
41,莲花山旅游区,{文化旅游区},22.993236,113.509893,7:00,17:00,54,1,1.5,4.8
42,广州海洋馆,{游乐园/体育娱乐;亲子友好},23.149705,113.311261,9:30,18:30,160,3,3.5,4.5
43,海心沙亚运公园,{公园;城市地标},23.117202,113.331179,7:00,23:00,0,1,2,4.8
44,花城广场,{商业街区;城市地标},23.125752,113.331127,0:00,24:00,0,0.5,1,4.8
45,正佳雨林生态植物园,{公园;亲子友好;沉浸式体验},23.137906,113.333565,10:00,22:00,98,3,3.5,4.4
46,广州都市双层观光巴士（粤陶巴）,{游乐园/体育娱乐;网红打卡点},23.113765,113.31604,9:00,17:00,0,2,2.5,4.5
47,广州兰圃,{公园;小众秘境},23.149913,113.266761,0:00,18:00,8,1.5,3,4.7
48,海珠国家湿地公园,{公园;小众秘境},23.072321,113.343072,9:00,19:00,18,2.5,3,4.5
49,正佳自然科学博物馆,{博物馆/纪念馆;亲子友好;沉浸式体验},23.137456,113.334356,10:00,20:00,40,2.5,4,4.6
50,千泷沟大瀑布,{自然风光;小众秘境},23.713006,113.865891,9:00,18:00,58,0.5,1,4.2
51,南越王博物院(王宫展区),{历史古迹},23.1331,113.276352,9:00,17:30,0,2,3,4.7
52,广州塔阿尔法探索乐园,{游乐园/体育娱乐;沉浸式体验;网红打卡点},23.112223,113.331084,15:00,22:00,378,1.5,3,4.2
53,正佳企鹅冰雪世界,{游乐园/体育娱乐;亲子友好;沉浸式体验},23.137465,113.333506,11:00,20:00,158,1,1.5,4.4
54,珠江夜游海心沙西区码头,{游乐园/体育娱乐;夜经济热点},23.116211,113.330131,16:00,22:30,0,2.5,3,4.6
55,天人山水大地艺术园,{游乐园/体育娱乐;亲子友好;小众秘境},23.440908,113.594523,10:00,19:00,58,0.5,1,4.4
56,珠江夜游广州塔·中大码头,{人文景观;夜经济热点},23.109558,113.306007,9:00,22:30,0,1,2,4.6
57,海心桥,{游乐园/体育娱乐;网红打卡点;城市地标},23.113958,113.325485,7:00,23:00,0,2,2.5,4.8
58,广州十三行博物馆,{博物馆/纪念馆},23.114945,113.257572,9:00,17:30,0,2,2.5,4.8
59,荔枝湾涌,{人文景观;夜经济热点},23.125161,113.241536,0:00,24:00,0,0.5,1,4.7
60,石门国家森林公园,{公园;小众秘境},23.631008,113.788742,9:00,19:00,40,1,2,4.6
61,太古仓,{商业街区;夜经济热点},23.094555,113.259118,0:00,24:00,0,2,3.5,4.7
62,粤剧艺术博物馆,{博物馆/纪念馆;非遗体验},23.121247,113.244769,9:00,21:00,0,2,3,4.8
63,大丰门景区,{自然风光;小众秘境},23.589925,113.822522,9:00,17:30,48,2.5,3,4.2
64,广州荔枝湾游船,{游乐园/体育娱乐;夜经济热点},23.126744,113.240948,9:30,17:00,0,0.5,1.5,4.3
65,李小龙祖居,{历史古迹},23.121135,113.243461,8:30,21:30,0,0.5,1.5,4.7
66,帷幕开啦（广州塔）蜡像馆,{人文景观;沉浸式体验;网红打卡点},23.112175,113.331955,10:00,22:30,98,0.5,1,4.6
67,幻境空间元宇宙体验馆(广州店),{游乐园/体育娱乐;沉浸式体验},23.139917,113.328022,10:00,22:00,59.9,2.5,4,3.7
68,天鹿湖森林公园,{公园;小众秘境},23.228718,113.426335,9:00,17:00,5,2,3.5,4.3
69,飞越丛林探险乐园,{游乐园/体育娱乐;亲子友好;沉浸式体验},23.229421,113.432816,9:00,17:30,65,0.5,2,4.7
70,珠江新城,{商业街区;城市地标;夜经济热点},23.124903,113.339912,0:00,24:00,0,3,3.5,4.3
71,荔湾湖公园,{公园;夜经济热点},23.126903,113.239395,0:00,24:00,0,2,3.5,4.8
72,珠江夜游西堤码头,{人文景观;夜经济热点},23.113222,113.258634,16:00,22:30,0,0.5,1,4.5
73,广州融创体育世界,{游乐园/体育娱乐;沉浸式体验},23.431966,113.240339,13:00,19:00,0,2,2.5,4.3
74,中山大学（南校区）,{大学校园;小众秘境},23.102915,113.304864,9:00,18:00,0,3,4,4.5
75,正佳科学馆·正佳天文馆,{游乐园/体育娱乐;亲子友好;沉浸式体验},23.138001,113.333422,10:00,20:00,0,1,1.5,4.4
76,云台花园,{公园;小众秘境},23.163796,113.29808,0:00,18:00,0,2,3,4.8
77,孙中山大元帅府纪念馆,{博物馆/纪念馆;红色景点},23.116337,113.285651,8:30,17:30,0,2,3,4
78,光孝寺,{历史古迹},23.135332,113.263078,8:30,16:30,0,2,2.5,4.6
79,南沙湿地,{自然风光;小众秘境},22.617149,113.654605,9:00,17:00,36,3,4,3.8
80,南沙游艇会,{游乐园/体育娱乐;夜经济热点},22.783418,113.608285,9:00,21:00,0,2.5,4,4.7
81,流溪河国家森林公园,{自然风光;小众秘境},23.756617,113.789932,8:00,17:00,20,0.5,1,4.4
82,九龙湖度假区,{游乐园/体育娱乐;亲子友好},23.480803,113.419942,0:00,24:00,0,2,3,4.1
83,黄金海岸水上乐园,{游乐园/体育娱乐;亲子友好},23.110856,113.299853,0:00,24:00,0,1.5,3,4.2
84,白云飞索,{游乐园/体育娱乐;沉浸式体验},23.191107,113.311189,10:30,17:30,0,1.5,2,4.5
85,广州市文化馆(新馆),{美术馆/艺术馆;网红打卡点},23.081787,113.33519,9:00,17:30,0,2.5,4,4.5
86,流花湖公园,{公园;小众秘境},23.143355,113.257705,0:00,22:00,0,2.5,4,4.8
87,圆玄道观,{人文景观},23.405862,113.186642,8:00,17:00,15,1,1.5,4.7
88,南汉二陵博物馆,{博物馆/纪念馆},23.053533,113.390497,9:00,17:30,0,0.5,1,4.7
89,黄花岗七十二烈士墓,{红色景点;红色景点},23.146964,113.300857,6:30,21:00,0,1,2,4.7
90,粤海关博物馆,{博物馆/纪念馆},23.113315,113.257528,9:00,16:00,0,1,2,4.7
91,广州图书馆,{人文景观;小众秘境},23.122229,113.331974,9:00,21:00,0,2.5,4,4.8
92,花都香草世界,{游乐园/体育娱乐;亲子友好},23.467507,113.267391,9:00,18:00,65,2,2.5,4.3
93,猎德大桥,{人文景观;城市地标},23.117739,113.340408,0:00,24:00,0,2.5,4,4.8
94,广州好普艺术博物馆,{博物馆/纪念馆},23.1741,113.464,9:00,18:00,0,1,2,4.3
95,二沙岛,{公园;小众秘境},23.115879,113.311347,0:00,24:00,0,1.5,2,4.8
96,正佳广场,{商业街区;亲子友好;夜经济热点},23.137887,113.333548,10:00,22:00,0,0.5,1.5,4.8
97,白云山索道,{游乐园/体育娱乐;沉浸式体验},23.163525,113.302034,9:00,18:00,0,1.5,2,4.8
98,空中缆车,{游乐园/体育娱乐;沉浸式体验},23.006068,113.324758,10:30,17:30,0,1,2.5,
99,TIT创意园,{人文景观;网红打卡点;夜经济热点},23.105729,113.33187,0:00,21:00,0,1,2,4.7
100,广州市都城隍庙,{历史古迹;非遗体验},23.132731,113.2775,0:00,17:00,0,1,2,4.8
101,世间香境·七溪地,{文化旅游区;小众秘境},23.536018,113.396561,9:00,18:00,0,2,3,4.5
102,长洲岛,{自然风光},23.082388,113.442626,0:00,24:00,0,0.5,1,4.7
103,南海神庙,{历史古迹},23.087583,113.504607,9:00,17:00,20,1,2.5,4.3
104,广州地铁博物馆,{博物馆/纪念馆;亲子友好;沉浸式体验},23.101949,113.389465,10:00,16:00,0,1,2.5,4.7
105,黄埔古港,{历史古迹;夜经济热点},23.095461,113.396026,0:00,24:00,0,3,4,4.7
106,溪头旅游村,{文化旅游区;小众秘境},23.719128,113.873632,0:00,24:00,100,1.5,3,4.4
107,大浪淘沙(冼村路店),{商业街区;夜经济热点},23.12225,113.334984,0:00,24:00,0,0.5,2,4.6
108,头号玩家广东广州跳伞基地,{游乐园/体育娱乐;沉浸式体验},23.141299,113.349842,8:00,23:30,0,2,3,3.8
109,辛亥革命纪念馆,{博物馆/纪念馆;红色景点},23.078246,113.426816,9:00,17:00,0,3,3.5,5
110,龙津西西关大屋区,{历史古迹},23.125071,113.242277,9:00,17:30,0,0.5,2,4.6
111,广州水上巴士,{游乐园/体育娱乐;亲子友好},23.112249,113.246822,7:00,18:30,0,3,4,4.5
112,广州市儿童公园,{公园;亲子友好},23.190304,113.278107,8:00,18:00,0,2,3,4.8
113,海鸥岛,{游乐园/体育娱乐;小众秘境},22.97941,113.531663,0:00,24:00,0,2,2.5,4.6
114,五羊石雕,{人文景观;网红打卡点;城市地标},23.144145,113.269391,0:00,22:00,0,0.5,1.5,4.7
115,广州铁路博物馆,{博物馆/纪念馆},23.117024,113.238448,9:00,16:00,0,0.5,1.5,4.6
116,南沙水鸟世界生态公园,{公园;亲子友好},22.619486,113.643696,9:00,17:00,0,0.5,1,4.5
117,天河公园,{公园;小众秘境},23.134103,113.371801,6:30,22:00,0,3,3.5,4.7
118,广州艺术博物院,{美术馆/艺术馆},23.149166,113.28707,9:00,17:00,0,0.5,1,4.8
119,疯狂的麦咭(广州体验馆),{游乐园/体育娱乐;沉浸式体验},22.976506,113.308682,13:00,22:00,0,1.5,2,4.7
120,广东美术馆,{美术馆/艺术馆;网红打卡点},23.114039,113.313698,9:00,17:00,0,1,2,4.8
121,宝能广州国际体育演艺中心,{游乐园/体育娱乐;沉浸式体验},23.181722,113.489011,8:30,17:00,0,1,2,4
122,保利世贸博览馆,{博物馆/纪念馆},23.103718,113.372736,0:00,24:00,0,2,3,4.8
123,客村,{商业街区;夜经济热点},23.101735,113.325925,0:00,24:00,0,1.5,2,4.6
124,农民运动讲习所旧址,{红色景点;红色景点},23.13386,113.28287,9:00,17:30,0,2.5,3,3.4
125,广州华夏世嘉都市乐园,{游乐园/体育娱乐;亲子友好;沉浸式体验},23.195674,113.600847,10:00,21:00,0,0.5,1.5,4.6
126,广州钧明欢乐世界,{游乐园/体育娱乐;亲子友好},23.195372,113.599518,10:00,20:00,0,1.5,2,4.4
127,白江湖森林公园,{公园;小众秘境},23.503464,113.915041,8:00,19:00,10,0.5,2,4.6
128,琶洲港澳客运口岸,{人文景观;城市地标},23.110248,113.373718,9:00,18:00,0,0.5,1,4.7
129,广州青少年科技馆,{博物馆/纪念馆;亲子友好;沉浸式体验},23.148823,113.278079,9:30,17:00,0,2,3,4.6
130,广州文化公园,{公园;夜经济热点},23.115633,113.257337,7:00,21:30,0,2,3,4.7
131,爱群大厦,{商业街区;城市地标;夜经济热点},23.115593,113.263623,0:00,24:00,0,2.5,4,4.3
132,广州翼·空港文旅小镇,{文化旅游区;小众秘境},23.360714,113.299584,0:00,24:00,0,2,2.5,4.1
133,六榕寺,{历史古迹},23.134141,113.266451,8:00,16:30,0,2,2.5,3.5
134,东山湖公园,{公园;小众秘境},23.122361,113.298465,0:00,21:30,0,0.5,1.5,4.8
135,荔湾博物馆,{博物馆/纪念馆},23.125681,113.242686,9:00,17:00,0,3,3.5,4.7
136,三元里人民抗英斗争纪念馆,{红色景点;红色景点},23.166898,113.266612,9:00,18:00,0,2,3,4.5
137,春阳台,{人文景观;小众秘境},23.341129,113.095442,10:00,18:00,60,0.5,1,4.6
138,有马空间(琶洲店),{游乐园/体育娱乐;沉浸式体验},23.103843,113.363278,0:00,24:00,0,1,2,4.7
139,琶洲塔,{历史古迹;非遗体验},23.105305,113.382269,0:00,24:00,0,1,2,4.7
140,广东省凉茶博物馆,{博物馆/纪念馆;非遗体验},23.185393,113.456405,9:00,17:00,0,3,3.5,4.4
141,珠江琶醍啤酒文化创意艺术区,{文化旅游区;夜经济热点},23.112566,113.346401,17:30,2:00,0,2,3,4.7
142,摩星岭,{自然风光;小众秘境},23.188995,113.307707,0:00,24:00,0,2.5,4,4.8
143,五指山,{自然风光;小众秘境},23.741667,113.81041,8:00,17:00,20,2,3,4.8
144,广州山谷国际旅游度假区,{游乐园/体育娱乐;亲子友好},23.478783,113.597056,9:30,17:30,0,1.5,2,4
145,大夫山森林公园,{公园;小众秘境},22.956343,113.315528,8:00,18:00,0,2.5,3,4.7
146,广东科学馆,{博物馆/纪念馆},23.139717,113.2697,9:30,16:30,0,1,1.5,4.3
147,海珠湖公园,{公园;小众秘境},23.078539,113.330994,8:00,20:00,0,0.5,1.5,4.7
148,沙面堂,{历史古迹},23.112754,113.248153,0:00,24:00,0,3,3.5,4.8
149,天河体育中心,{游乐园/体育娱乐;夜经济热点},23.143232,113.331575,6:00,22:00,0,3,4,4.8
150,星海音乐厅,{美术馆/艺术馆;网红打卡点},23.113815,113.31217,0:00,20:30,0,1,1.5,4.9
151,珠江公园,{公园;小众秘境},23.127287,113.347168,0:00,22:00,0,2,3,4.8
152,黄大仙祠,{人文景观},23.101465,113.233717,0:00,17:30,0,3,4,4.7
153,九龙湖生态公园,{公园;亲子友好},23.47724,113.425418,9:00,17:00,55,1,2.5,3.8
154,番禺儿童公园,{游乐园/体育娱乐;亲子友好},22.967148,113.373662,8:00,21:30,0,1.5,3,4.7
155,越秀山,{公园},23.144092,113.269578,0:00,21:00,0,3,3.5,4.6
156,广州国际金融中心-西塔,{商业街区;城市地标;夜经济热点},23.123486,113.329659,10:00,22:00,0,3,3.5,4.4
157,天河路商圈,{商业街区;夜经济热点},23.147072,113.336053,0:00,24:00,0,0.5,1,4.9
158,广州鲁迅纪念馆,{博物馆/纪念馆;红色景点},23.130224,113.283364,9:00,17:00,0,1,2,4.8
159,三元宫,{历史古迹},23.141037,113.269674,0:00,17:00,0,1,2,4.8
160,白云山国家级风景名胜区-玻璃桥,{自然风光;沉浸式体验},23.176297,113.308671,8:30,17:00,0,2,2.5,4.2
161,南粤苑,{人文景观;亲子友好;小众秘境},22.904203,113.295986,8:30,17:30,42,1.5,2,4.7
162,广东奥体中心,{游乐园/体育娱乐;城市地标},23.146083,113.418268,0:00,24:00,0,1.5,2,4.8
163,TaxiWay飞行中心(广州塔店),{游乐园/体育娱乐;沉浸式体验},23.112219,113.331153,10:00,22:00,288,1,2,4.4
164,广东省古村落小洲村,{历史古迹;小众秘境},23.068246,113.364821,0:00,24:00,0,3,4,4.6
165,马岭观花植物园,{公园;小众秘境},23.48092,113.115289,9:00,17:30,79.9,2,2.5,4.1
166,流溪河,{自然风光;小众秘境},23.309788,113.288276,0:00,24:00,0,0.5,1,4.2
167,天池,{自然风光;小众秘境},22.988796,113.512643,0:00,24:00,0,1.5,2,4.5
168,七彩澳游世界,{游乐园/体育娱乐;亲子友好},23.327309,113.703262,9:30,18:00,52.9,2,2.5,4.2
169,华林禅寺,{历史古迹},23.122428,113.253216,0:00,17:00,0,2,2.5,4.8
170,帽峰山景区,{自然风光;小众秘境},23.308856,113.463457,0:00,17:00,10,0.5,1,4.7
171,虎门大桥,{人文景观;城市地标},22.792189,113.614387,0:00,24:00,0,3,3.5,4.8
172,孙中山纪念馆,{博物馆/纪念馆;红色景点},23.102519,113.303485,8:00,17:00,0,1,2,5
173,白云山风景名胜区-山顶公园,{公园;城市地标},23.177947,113.306399,0:00,24:00,0,2,3.5,4.7
174,天龙溪自然风景区,{自然风光;小众秘境},23.541753,113.256538,9:00,22:00,26.8,3,3.5,4.3
175,广州市麓湖公园,{公园;小众秘境},23.154881,113.289439,0:00,24:00,0,0.5,1.5,4.8
176,南沙滨海湿地景区,{自然风光;小众秘境},22.75522,113.624057,0:00,24:00,0,0.5,1.5,3.8
177,深中大桥,{游乐园/体育娱乐;城市地标},22.564071,113.653126,0:00,24:00,0,2,2.5,4.8
178,桂峰村,{人文景观;小众秘境},23.814063,114.013896,0:00,24:00,0,1,2,4.6
179,大河马水上世界,{游乐园/体育娱乐;亲子友好},23.21988,113.331571,10:00,18:00,55,2,3.5,4.2
180,南沙大角山海滨公园,{公园;夜经济热点},22.756166,113.625676,0:00,24:00,0,2.5,3,4.2
181,广州野恩动物乐园,{游乐园/体育娱乐;亲子友好;猫狗特色},23.142399,113.331733,10:00,22:00,0,1.5,2,4.8
182,南沙滨海泳场,{游乐园/体育娱乐;亲子友好},22.766857,113.62641,9:00,18:00,0,1,2,3.8
183,珠江夜游(海心沙东区码头),{游乐园/体育娱乐;夜经济热点},23.116329,113.333457,16:00,22:30,0,2.5,3,4.6
184,南沙十九涌,{人文景观;美食目的地},22.60589,113.65163,0:00,24:00,0,1,2.5,4.7
185,广州海事博物馆,{博物馆/纪念馆},23.085411,113.508844,8:00,16:00,0,2.5,3,4.6
186,白鹅潭大湾区艺术中心,{美术馆/艺术馆;网红打卡点},23.107106,113.246052,9:00,17:00,0,2.5,4,4.8
187,生态设计小镇,{其它;小众秘境},23.708562,113.727591,9:00,22:00,0,2,3.5,4.5
188,西坊大院文化创意园,{文化旅游区;网红打卡点;夜经济热点},22.943144,113.36367,0:00,24:00,0,2,3,4.6
189,广州白云国际会议中心,{商业街区},23.194991,113.286075,0:00,24:00,0,0.5,2,4.6
190,鱼珠码头,{人文景观;夜经济热点},23.099873,113.436123,0:00,23:30,0,2,3,4.5
191,正佳赛博运动空间,{游乐园/体育娱乐;沉浸式体验},23.13786,113.333634,10:00,22:00,198,1.5,3,4.3
192,番禺欢乐森林,{游乐园/体育娱乐;亲子友好},23.016062,113.446159,10:00,21:00,19.9,2.5,3,4.4
193,长隆欢乐世界-欢乐摩天轮,{游乐园/体育娱乐;亲子友好},23.003416,113.336111,10:00,18:00,0,1.5,2,3.6
194,广东民间工艺博物馆,{博物馆/纪念馆;非遗体验},23.133185,113.252021,9:00,18:00,0,0.5,1.5,4.6
195,天河大观湿地公园,{公园;小众秘境},23.184698,113.429953,0:00,24:00,0,1,2.5,4.6
196,奈尔宝家庭中心(悦汇城店),{游乐园/体育娱乐;亲子友好},23.155555,113.249688,10:00,21:00,0,2.5,3,4.7
197,火炉山森林公园,{公园;小众秘境},23.187005,113.396663,0:00,24:00,0,1,2,4.7
198,南沙慧谷超级堤,{公园;夜经济热点},22.747254,113.612978,0:00,24:00,0,1,1.5,4.7
199,百花园(三堂路店),{公园;网红打卡点},22.944376,113.367285,11:00,14:00,0,2,3,4.3
200,欧洲风情街,{商业街区;网红打卡点;夜经济热点},22.929721,113.361494,0:00,24:00,0,2,3,4.1
201,碧水峡漂流,{游乐园/体育娱乐;沉浸式体验},23.684252,113.770997,13:30,16:30,35,0.5,1.5,4.5
202,广州亚运城综合体育馆,{游乐园/体育娱乐},22.947651,113.488521,9:00,12:00,0,2,3.5,4.8
203,怀圣寺,{历史古迹},23.129071,113.265427,0:00,24:00,0,2,2.5,4.5
204,广州艺术博物院(新馆),{美术馆/艺术馆;网红打卡点},23.106824,113.332724,9:00,17:00,0,0.5,1.5,4.8
205,孙中山文献馆,{博物馆/纪念馆;红色景点},23.130477,113.277149,9:30,17:30,0,1,1.5,4.3
206,广东花都湖国家湿地公园,{公园;小众秘境},23.387857,113.23775,6:30,22:00,0,1,1.5,4.6
207,夜上海(时尚天河商业广场店),{商业街区;美食目的地;夜经济热点},23.139698,113.331829,10:00,22:00,0,0.5,1,4.7
208,广州起义烈士陵园,{红色景点;小众秘境},23.135765,113.292235,0:00,21:00,0,0.5,1.5,5
209,深井古村,{历史古迹},23.082073,113.415391,0:00,24:00,0,0.5,1,4.3
210,广州极动公园,{游乐园/体育娱乐;沉浸式体验},23.109833,113.42645,10:00,21:00,0,2,3.5,4.8
211,派潭镇,{自然风光;节庆限定},23.496063,113.790665,0:00,24:00,0,3,3.5,4.6
212,安华汇欢乐舟主题乐园,{游乐园/体育娱乐;亲子友好},23.223415,113.303516,10:00,19:00,30,0.5,2,4.5
213,海心沙亚运公园-海心沙广场,{公园;城市地标;夜经济热点},23.119151,113.327574,0:00,24:00,0,2,2.5,4.8
214,OMG网红街,{商业街区;网红打卡点;夜经济热点},23.045464,113.323994,9:00,22:00,0,3,4,4.5
215,荔湖公园,{公园;小众秘境},23.247055,113.818367,0:00,24:00,0,1.5,3,4.7
216,广州悬空玻璃艺术馆（天河旗舰店）,{美术馆/艺术馆;网红打卡点;沉浸式体验},23.142293,113.330878,10:00,22:00,39.9,2,3,4.6
217,广州起义纪念馆,{红色景点},23.130345,113.270873,9:00,17:30,0,2.5,4,4.6
218,石头记矿物园,{公园;网红打卡点},23.406978,113.167616,9:00,18:00,55,1,2,4.7
219,广东外事博物馆,{博物馆/纪念馆},23.112228,113.254694,9:00,11:30,0,1,2,4.2
220,马尔代夫欢乐岛,{游乐园/体育娱乐;亲子友好},23.136176,113.683563,9:00,23:00,0,2.5,3,4
221,宝趣玫瑰世界,{游乐园/体育娱乐;网红打卡点},23.627666,113.589991,9:00,18:00,45,2,3,3.3
222,王子山森林公园,{公园;小众秘境},23.573497,113.222987,0:00,17:00,0,2,2.5,4.1
223,沙面岛-江边广场,{人文景观;网红打卡点;夜经济热点},23.111167,113.25089,0:00,24:00,0,0.5,1,4.5
224,广东中医药博物馆,{博物馆/纪念馆;非遗体验},23.06527,113.41211,9:00,16:45,0,0.5,2,4.8
225,林则徐纪念园,{红色景点},23.118215,113.293276,0:00,24:00,0,1,2.5,4.6
226,神农草堂中医药博物馆,{博物馆/纪念馆;非遗体验},23.202979,113.344502,8:30,12:00,0,1,1.5,4.6
227,广州独角兽星空艺术馆,{美术馆/艺术馆;网红打卡点;沉浸式体验},23.128956,113.273693,10:00,22:00,39.8,0.5,1.5,4.5
228,万博中心,{商业街区;夜经济热点},23.013736,113.349203,9:00,17:30,0,0.5,2,4.7
229,增江画廊,{自然风光;小众秘境},23.262268,113.832543,0:00,24:00,0,2,2.5,4.6
230,曼古园,{人文景观;小众秘境},23.408068,113.164816,0:00,22:00,0,1.5,2,4.4
231,黄埔军校史迹第一展馆,{红色景点;非遗体验},23.092223,113.432175,9:00,17:00,0,3,3.5,4.1
232,四海马术,{游乐园/体育娱乐;亲子友好},23.027175,113.454251,9:30,11:00,0,3,4,4.5
233,颠倒博物馆(捷登都会店),{博物馆/纪念馆;沉浸式体验},23.13211,113.27208,10:00,21:00,0,2.5,3,4.1
234,广州近代史博物馆,{博物馆/纪念馆;红色景点},23.134641,113.289774,9:00,17:30,0,1,2.5,4.7
235,南平静修小镇,{文化旅游区;小众秘境},23.556879,113.726403,0:00,24:00,0,2,3,4
236,南越国水关遗址(光明广场),{历史古迹},23.128582,113.273819,14:00,18:00,0,2,2.5,4.6
237,天主教广州教区露德圣母堂,{历史古迹},23.113254,113.254233,6:00,17:00,0,3,3.5,4.6
238,广州番禺直升机观光游览区,{游乐园/体育娱乐;沉浸式体验},22.971341,113.52181,9:00,21:00,499,2,2.5,4.9
239,珠江夜游省总码头,{人文景观;夜经济热点},23.117493,113.268404,17:00,21:30,0,0.5,1,4.1
240,广州古城墙,{历史古迹;城市地标},23.142631,113.269913,0:00,22:00,0,1,2.5,4.5
241,广州名人蜡像馆,{博物馆/纪念馆;沉浸式体验},23.111322,113.331595,9:30,22:30,0,2,3,4.6
242,海幢寺,{历史古迹},23.111474,113.265451,7:00,17:00,0,0.5,1.5,4.8
243,韩江屋,{历史古迹;小众秘境},23.034802,113.371985,9:00,19:00,0,1.5,2,4.6
244,海蚀洞,{自然风光;小众秘境},23.113316,113.607356,0:00,24:00,0,1.5,3,1
245,中国共产党第三次全国代表大会会址纪念馆,{红色景点},23.125053,113.302578,9:00,17:30,0,0.5,1.5,4.2
246,罗马帝国的艺术-那不勒斯国立考古博物馆藏文物精品展,{博物馆/纪念馆;沉浸式体验},23.120486,113.332975,9:00,17:00,0,1,2,4.8
247,创客公园,{公园;小众秘境},23.071633,113.297841,0:00,24:00,0,0.5,2,4.3
248,乘船探索秘境,{自然风光;小众秘境},23.030921,113.28094,11:00,17:00,0,3,3.5,3.3
249,中山公园,{公园;小众秘境},23.079364,113.423999,0:00,24:00,0,2,3.5,4.8
250,中央演艺广场,{人文景观;夜经济热点},23.005159,113.337564,0:00,24:00,0,0.5,1,4.2
251,广州民俗博物馆,{博物馆/纪念馆},23.392541,113.198186,9:00,17:00,0,3,3.5,4.3
252,紫泥堂,{人文景观;网红打卡点;夜经济热点},22.897389,113.291907,0:00,24:00,0,1,2,4.6
253,珠江夜游会展中心码头,{游乐园/体育娱乐;夜经济热点},23.110572,113.369801,10:00,22:00,0,2.5,3,4.6
254,广州不可思议运动街区,{游乐园/体育娱乐;沉浸式体验},23.125892,113.27646,10:00,22:00,0,2.5,3,4.8
255,大吉沙,{人文景观;小众秘境},23.087628,113.460518,0:00,24:00,0,3,3.5,4.4
256,蝴蝶谷,{游乐园/体育娱乐;亲子友好},23.560945,113.231813,8:30,18:00,0,2.5,4,4.5
257,增城区正果镇正果老街景区,{文化旅游区;美食目的地;非遗体验},23.423866,113.901193,0:00,24:00,0,1.5,3,4.5
258,花山小镇,{人文景观;小众秘境},23.446089,113.291138,9:00,22:00,0,2.5,3,4.2
259,黄沙码头,{人文景观;夜经济热点},23.112267,113.246886,6:00,22:00,0,2,3,4.6
260,黄山鲁森林公园,{公园;小众秘境},22.783267,113.577166,0:00,16:30,0,0.5,2,4.6
261,故乡里民俗文化村,{文化旅游区},23.489996,113.0702,9:00,17:00,58,1,2,3.7
262,探洞工场(六元素旗舰店),{游乐园/体育娱乐;沉浸式体验},23.102275,113.378826,10:00,21:00,0,0.5,1,4.5
263,卡洛卡太空森林亲子乐园,{游乐园/体育娱乐;亲子友好},23.434425,113.24712,10:00,20:00,0,2.5,3,4.7
264,广州大学城体育中心,{游乐园/体育娱乐;亲子友好},23.0609,113.397292,14:00,22:00,0,0.5,1,4.7
265,十八罗汉山森林公园,{公园;小众秘境},22.792373,113.412964,6:30,18:30,0,0.5,1.5,4.5
266,黄埔军事主题园,{游乐园/体育娱乐;沉浸式体验},23.078618,113.411678,9:00,17:00,0,1,2,4.1
267,仁威祖庙,{历史古迹},23.128977,113.242168,8:00,17:00,0,2,3.5,4.7
268,鸭洞河小溪,{自然风光;小众秘境},23.70448,113.733508,0:00,24:00,0,2.5,3,2.4
269,广州美术馆(新馆),{美术馆/艺术馆;网红打卡点},23.106533,113.332614,9:00,17:30,0,0.5,1,4.8
270,灵山岛尖,{自然风光;小众秘境},22.778073,113.523847,0:00,24:00,0,1.5,2,4.6
271,留耕堂,{历史古迹},22.910211,113.340343,0:00,17:30,0,2.5,3,3.9
272,洪秀全故居,{红色景点},23.423379,113.179413,9:00,17:00,0,1.5,3,4.7
273,西郊游泳场,{游乐园/体育娱乐;夜经济热点},23.128977,113.234057,7:00,21:30,34.8,1,2,4.7
274,广州华侨博物馆,{博物馆/纪念馆},23.119256,113.271033,9:30,17:00,0,3,4,4.6
275,蒲洲花园,{公园;小众秘境},22.768203,113.6226,0:00,19:00,0,3,3.5,4.4
276,风云岭森林公园,{公园;小众秘境},23.54756,113.570755,0:00,24:00,0,0.5,2,4.7
277,广州隧道博物馆,{博物馆/纪念馆},22.764352,113.55845,10:00,16:30,0,0.5,2,4.7
278,孙中山先生故居,{红色景点;非遗体验},23.092745,113.431038,9:00,17:00,0,0.5,1,4.1
279,港头村古村落,{历史古迹;小众秘境},23.428573,113.401361,0:00,24:00,0,2,3.5,4.5
280,广州chi K11艺术空间,{美术馆/艺术馆;网红打卡点},23.123892,113.332952,10:00,21:30,0,1,2,4.6
281,中华全国总工会旧址,{红色景点},23.125529,113.284248,9:00,17:30,0,0.5,1,4.6
282,广州白云湖公园,{公园;小众秘境},23.234257,113.243843,0:00,21:00,0,1,2,4.7
283,广州体育馆,{游乐园/体育娱乐;夜经济热点},23.187879,113.284057,9:00,22:00,0,1,2.5,4.7
284,朗头村,{历史古迹},23.345045,113.094007,0:00,24:00,0,1.5,2,4.5
285,广州雕塑公园,{公园;小众秘境},23.156454,113.27673,0:00,24:00,0,1.5,3,4.7
286,奥咖HOKA光影剧场,{游乐园/体育娱乐;沉浸式体验},23.145414,113.313542,9:00,16:00,35,2,3,4.1
287,人民公园,{公园;小众秘境},23.133405,113.270815,0:00,24:00,0,0.5,1,3.3
288,哈利波特(海珠新都荟店),{游乐园/体育娱乐;沉浸式体验},23.07911,113.298414,10:00,22:00,0,1,2,3.8
289,南越国宫署遗址,{历史古迹},23.133223,113.276322,9:00,17:00,0,2,3.5,4
290,滨海公园,{公园;夜经济热点},22.756007,113.625699,0:00,24:00,0,0.5,1,4.2
291,天湖旅游风景区,{自然风光;小众秘境},23.655576,113.636903,9:00,17:00,25,0.5,1,4
292,萝岗香雪公园,{公园;节庆限定},23.189269,113.533589,0:00,24:00,0,0.5,1,4.5
293,广州二龙山花园,{公园;小众秘境},23.359062,113.736507,9:00,17:30,0,1.5,2,4.6
294,庙前夜市,{商业街区;美食目的地;夜经济热点},23.12929,113.300837,18:00,24:00,0,2,3,3.8
295,赤岗塔,{历史古迹;城市地标},23.107593,113.329276,0:00,24:00,0,1,2,4.1
296,广州融创大马戏-奇幻秘境,{游乐园/体育娱乐;沉浸式体验},23.43547,113.246764,10:00,20:00,0,2,2.5,4.6
297,LPS在地公园,{公园;网红打卡点},23.125749,113.303105,11:00,20:00,0,2,3.5,3.9
298,广州市城市规划展览中心,{博物馆/纪念馆},23.197644,113.284064,9:00,17:00,0,2,3,4.8
299,沿江路酒吧街,{商业街区;美食目的地;夜经济热点},23.039826,113.317041,0:00,24:00,0,1,2.5,4.4
300,观龙岛,{自然风光;小众秘境},22.909307,113.490148,0:00,24:00,0,2,2.5,4.5
301,西关大宅门,{历史古迹},23.124206,113.242879,0:00,24:00,0,0.5,2,4.4
302,广州体育文化博物馆,{博物馆/纪念馆},23.144373,113.328775,9:00,17:00,0,2.5,4,4.3
303,考拉广场,{商业街区;亲子友好},23.006163,113.321381,0:00,24:00,0,2.5,4,4
304,花都湿地公园,{公园;小众秘境},23.394674,113.262518,6:00,22:00,0,1,2.5,3.8
305,黄埔村,{历史古迹},23.100133,113.404609,0:00,24:00,0,1,2,4.5
306,北回归线公园,{公园;小众秘境},23.444851,113.493292,0:00,24:00,0,3,3.5,4.2
307,珠江夜游(太古仓码头),{人文景观;夜经济热点},23.094724,113.258941,9:00,22:00,108,1.5,2,4.5
308,罗洞工匠小镇,{人文景观;非遗体验},23.502871,113.624054,9:00,17:00,0,2,3.5,4.3
309,詹天佑故居纪念馆,{博物馆/纪念馆},23.11889,113.246014,10:00,17:30,0,3,3.5,4.5
310,基督教救主堂,{人文景观;非遗体验},23.126099,113.277701,9:00,17:00,0,0.5,1,4.6
311,马鞍山公园,{公园;小众秘境},23.400687,113.244103,0:00,24:00,0,0.5,1,4.5
312,儿童天地展馆,{游乐园/体育娱乐;亲子友好},23.045277,113.368971,9:30,16:30,0,2,2.5,4
313,邓世昌纪念馆,{博物馆/纪念馆},23.107473,113.266899,9:00,17:00,0,3,3.5,4
314,艾米稻香小镇,{文化旅游区;亲子友好},23.553413,113.566048,0:00,24:00,0,0.5,1,4.6
315,桃花小镇,{文化旅游区;节庆限定},23.497222,113.621667,0:00,23:00,0,0.5,1,4.4
316,滴水岩森林公园,{公园;小众秘境},22.911546,113.32154,0:00,18:00,0,2,3,4.5
317,广州城市双层观光巴士,{游乐园/体育娱乐;沉浸式体验},23.121065,113.274234,9:30,21:30,50,2,2.5,4.4
318,大岭村,{人文景观;小众秘境},22.990928,113.483917,0:00,24:00,0,1,2,4
319,1978文化创意产业园,{文化旅游区;网红打卡点;夜经济热点},23.302686,113.850166,0:00,24:00,0,2,2.5,4.5
320,一方乐田都市农园,{公园;亲子友好;网红打卡点},23.079113,113.310354,9:30,22:30,37.4,3,4,4.3
321,龟岗民国建筑群,{历史古迹;小众秘境},23.127913,113.300049,0:00,24:00,0,1,2.5,3.6
322,南沙欢乐世界,{游乐园/体育娱乐;沉浸式体验;亲子友好;网红打卡点},22.905648,113.403675,10:00,19:00,0,2,3,3.8
323,岭南金融博物馆,{博物馆/纪念馆;亲子友好},23.130111,113.273057,9:00,17:00,0,1,2,4.6
324,花果山公园,{公园;亲子友好},23.395248,113.225884,0:00,24:00,0,1,1.5,4.3
325,广州8号艺术晒谷场,{人文景观;网红打卡点;沉浸式体验},23.033539,113.438048,0:00,24:00,0,0.5,1,4.3
326,笑平园休闲科教农场,{公园;亲子友好},23.469808,113.192439,9:30,19:00,24.9,2,3.5,4.2
327,广州翔云跳伞俱乐部(增城基地),{游乐园/体育娱乐;沉浸式体验;网红打卡点},23.281304,113.82263,0:00,23:30,0,2,3,3.6
328,海傍水乡,{自然风光;亲子友好},22.948095,113.472611,0:00,24:00,0,2.5,3,4.3
329,石基,{历史古迹},22.956489,113.432973,0:00,24:00,0,1.5,2,4.7
330,桃花涧,{自然风光;网红打卡点},23.197683,113.313586,0:00,24:00,0,2.5,3,3.2
331,晓港公园,{公园;亲子友好},23.102924,113.287264,0:00,21:00,0,2,3.5,4.8
332,新塘公园,{公园;小众秘境},23.125106,113.624689,0:00,24:00,0,0.5,1,4.5
333,南平村,{红色景点;网红打卡点},23.554016,113.723738,0:00,24:00,0,2,3,4.6
334,洲头咀公园,{公园;小众秘境},23.107862,113.252296,0:00,24:00,0,2,3,4.8
335,沙面街文化站,{文化旅游区;网红打卡点},23.113885,113.251112,9:30,11:30,0,1,2.5,4.4
336,美华航空航天科普基地,{游乐园/体育娱乐;沉浸式体验;亲子友好},23.422687,113.25454,8:00,18:00,0,0.5,1.5,4.2
337,黄埔公园,{公园;亲子友好},23.104145,113.458325,0:00,21:00,0,0.5,2,4.6
338,海珠桥,{历史古迹;城市地标},23.117869,113.273947,0:00,24:00,0,3,4,4.8
